TIMESTAMP,Meteo_Latitude,Meteo_Longitude,Meteo_HASL,Meteo_Rel_WindDir,Meteo_Corr_WindDir,Meteo_Corr_WindS,Meteo_WindDir_True,Meteo_Rel_WS,Meteo_BP,Meteo_RH,Meteo_AirTemp,Meteo_DP,Meteo_AD,Meteo_WBT,SBE37_SBE37Sn,SBE37_SBE37Temp,SBE37_SBE37Cond,SBE37_SBE37Pres,SBE37_SBE37OXY,SBE37_SBE37Sal,Doppler_DoppVolts,Doppler_DoppSoundSpeed,Doppler_DoppHeading,Doppler_DoppPitch,Doppler_DoppRoll,Doppler_DoppPress,Doppler_DoppTemp,Doppler_DoppCell(1),Doppler_DoppCell(2),Doppler_DoppCell(3),Doppler_DoppCell(4),Doppler_DoppCell(5),Doppler_DoppCell(6),Doppler_DoppCell(7),Doppler_DoppCell(8),Doppler_DoppCell(9),Doppler_DoppCell(10),Doppler_DoppCell(11),Doppler_DoppCell(12),Doppler_DoppCell(13),Doppler_DoppCell(14),Doppler_DoppCell(15),Doppler_DoppCell(16),Doppler_DoppCell(17),Doppler_DoppCell(18),Doppler_DoppCell(19),Doppler_DoppCell(20),Doppler_DoppCell(21),Doppler_DoppCell(22),Doppler_DoppCell(23),Doppler_DoppCell(24),Doppler_DoppCell(25),Doppler_DoppCell(26),Doppler_DoppCell(27),Doppler_DoppCell(28),Doppler_DoppCell(29),Doppler_DoppCell(30),Doppler_DoppCell(31),Doppler_DoppCell(32),Doppler_DoppCell(33),Doppler_DoppCell(34),Doppler_DoppCell(35),Doppler_DoppCell(36),Doppler_DoppCell(37),Doppler_DoppCell(38),Doppler_DoppCell(39),Doppler_DoppCell(40),Sami_SamiData,Sami_SamiMessage,Sami_SamiNBlank,System_PanelTemp,System_Datalogg_Batt,System_Batt_Volt,System_Solar_Voltage,System_Current,System_CTD_PwrOff,System_ADP_PwrOff,System_SAMI_PwrOff,System_Meteo_PwrOff
2024-11-29T04:00:00Z,,,,,,,,,,,,,,,,,,,,,,,,,,,,,,,,,,,,,,,,,,,,,,,,,,,,,,,,,,,,,,,,,,,,,,,61,18.35,12.44,12.51,1.9,0.099,0,0,0
2024-11-29T03:00:00Z,,,,,,,,,,,,,,,,,,,,,,,,,,,,,,,,,,,,,,,,,,,,,,,,,,,,,,,,,,,,,,,,,,,,,,,60,18.40,12.44,12.51,1.8,0.098,0,0,0
2024-11-29T02:00:00Z,,,,,,,,,,,,,,,,,,,,,,,,,,,,,,,,,,,,,,,,,,,,,,,,,,,,,,,,,,,,,,,,,,,,,,,59,18.45,12.44,12.51,1.7,0.097,0,0,0
2024-11-29T01:00:00Z,,,,,,,,,,,,,,,,,,,,,,,,,,,,,,,,,,,,,,,,,,,,,,,,,,,,,,,,,,,,,,,,,,,,,,,58,18.50,12.44,12.51,1.6,0.096,0,0,0
2024-11-29T00:00:00Z,,,,,,,,,,,,,,,,,,,,,,,,,,,,,,,,,,,,,,,,,,,,,,,,,,,,,,,,,,,,,,,,,,,,,,,57,18.55,12.44,12.51,1.5,0.095,0,0,0
2024-11-21T22:00:00Z,56,41.38533,2.195418,45,99,127,0.97,129,0.97,1001.7,48,19.1,7.9,1.2,56,37-26087,18.3508,3E-05,-0.196,NAN,56, 11 19 2024 20 8 37 0 44 12.1 1520.5 170.1 161.0 -160.5 0.068 18.49 0 0    1   1394 3091    2   1216 2949    3    365 2654    4    905 2652    5   1404 3186    6   1533 2535    7   1304 2773    8   1228 3010    9    607 2710   10   1217 2841   11   1259 2940   12    407 2855   13   1001 2564   14   1501 2790   15   1795 2619   16   1682 3184   17   1341 2630   18   1990 3026   19    817 3018   20    864 2900   21    965 2996   22   1747 2977   23   1127 3333   24    968 2712   25   1224 2307   26   1377 2931   27    961 2542   28   1202 2712   29   1205 2401   30   1413 3249   31    685 3478   32    851 3111   33   1558 3103   34    897 2916   35   1109 2778   36    680 3337   37   1790 2844   38   1247 2712   39   1232 2589   40   1077 2729  ,11,19,2024,20,8,37,12.1,1521,170.1,161,-160.5,0.068,18.49,1394 309,1216 294,365 265,905 265,1404 318,1533 253,1304 277,1228 301,607 271,1217 284,1259 294,407 285,1001 256,1501 279,1795 261,1682 318,1341 263,1990 302,817 301,864 290,965 299,1747 297,1127 333,968 271,1224 230,1377 293,961 254,1202 271,1205 240,1413 324,685 347,851 311,56,:5:70A :17AE70AE3655E531B651AB41377238214921AAF136F237114901AA8136B2367147F1AB4136C2372148D1AB013722370148B1AB00FCD237014721AA407F2236E140E1ABC017A237B128D1AB500EA237011AE1AAC014B236C12321AAC0278236913021ABA0442237513991AB50689237013ED1AAA08CF236F142E1AB50ADE236B144B1AB60CA3236C14701AA40DF9236A14711AB80F1C236E147F1AB01005236B147D1AA810B6236D147D1AB311572370148C1AAE11CF236A14871AB6122D236B14871AAC1279236C14861AB112AC237C14891AA712D8235E14811AB612F92374148B3D433DF91B6CC9  ,:5:70A :17AE70AE3655E531B651AB41377238214921AAF136F237114901AA8136B2367147F1AB4136C2372148D1AB013722370148B1AB00FCD237014721AA407F2236E140E1ABC017A237B128D1AB500EA237011AE1AAC014B236C12321AAC0278236913021ABA0442237513991AB50689237013ED1AAA08CF236F142E1AB50ADE236B144B1AB60CA3236C14701AA40DF9236A14711AB80F1C236E147F1AB01005236B147D1AA810B6236D147D1AB311572370148C1AAE11CF236A14871AB6122D236B14871AAC1279236C14861AB112AC237C14891AA712D8235E14811AB612F92374148B3D433DF91B6CC9  ,56,18.61,12.44,12.51,1.381,0.094,0,0,0
2024-11-21T21:00:00Z,55,41.38539,2.195715,47,95,123,0.93,125,0.93,1001.7,47,19.1,7.7,1.2,55,37-26087,18.3148,3E-05,-0.195,NAN,55, 11 19 2024 19 8 37 0 44 12.1 1520.7 171.7 160.9 -160.5 0.069 18.55 0 0    1    826 2567    2    999 2957    3   1072 2910    4   1608 2797    5    940 2804    6    902 2775    7   1657 2700    8   2018 3007    9   1727 2982   10   1109 2883   11   2020 2986   12   1123 2749   13    940 3041   14    781 3118   15    551 3222   16   1523 2720   17    676 2404   18   1606 2742   19   1568 2912   20   1591 3145   21   1608 2951   22   1681 3089   23   1428 2918   24    782 3009   25   1139 2773   26   1139 2818   27   1255 3242   28   1509 3212   29    622 2905   30    960 3242   31    732 2979   32   1167 2450   33   1107 3336   34   2284 2528   35    670 2723   36   1069 2670   37    653 2966   38    570 2692   39    851 3172   40    271 1976  ,11,19,2024,19,8,37,12.1,1521,171.7,160.9,-160.5,0.069,18.55,826 256,999 295,1072 291,1608 279,940 280,902 277,1657 270,2018 300,1727 298,1109 288,2020 298,1123 274,940 304,781 311,551 322,1523 272,676 240,1606 274,1568 291,1591 314,1608 295,1681 308,1428 291,782 300,1139 277,1139 281,1255 324,1509 321,622 290,960 324,732 297,1167 245,55,:5:70A :17AE70AE36550431B621AB61360237F14811AB313652374147B1AA813682371147C1AAD1361237914751AA41365236C14781AB30FCE237014591AA207A1236713FA1AAA0177236A127C1AB100F1236F11A41AA301512371122D1AB5026E237112E81AAC043D235E13701AAB0686236E13DD1AAE08E6237414191AAF0AC5236B143A1AB60C80236E14541AAB0E01237514631AB30F262368146B1A9E1010236414781AAB10B6237014731AB01153236E14781AA511B82367146C1AB01218237514751AAD126C2373147C1AA6129A235A14701AA712C3236014691AB612EC237614733D423DF91B6A15  ,:5:70A :17AE70AE36550431B621AB61360237F14811AB313652374147B1AA813682371147C1AAD1361237914751AA41365236C14781AB30FCE237014591AA207A1236713FA1AAA0177236A127C1AB100F1236F11A41AA301512371122D1AB5026E237112E81AAC043D235E13701AAB0686236E13DD1AAE08E6237414191AAF0AC5236B143A1AB60C80236E14541AAB0E01237514631AB30F262368146B1A9E1010236414781AAB10B6237014731AB01153236E14781AA511B82367146C1AB01218237514751AAD126C2373147C1AA6129A235A14701AA712C3236014691AB612EC237614733D423DF91B6A15  ,55,18.66,12.45,12.52,1.26,0.091,0,0,0
2024-11-21T20:00:00Z,54,41.38537,2.195681,31,102,130,1.08,132,1.08,1002.1,47,19.3,7.8,1.2,54,37-26087,18.4281,4E-05,-0.192,NAN,54, 11 19 2024 18 8 37 0 44 12.1 1521.1 170.7 161.0 -160.4 0.075 18.71 0 0    1    399 2577    2   1519 2854    3   1322 2610    4   1606 2645    5   1175 3314    6   1130 3247    7   1684 3149    8   1513 3353    9    524 3018   10   1196 3139   11    754 3113   12    587 3328   13   1057 3223   14   1594 3190   15   1113 2571   16   1254 2921   17   1108 2820   18    917 3305   19    767 2630   20    727 2862   21    804 3582   22    720 3060   23   1430 3245   24   1078   87   25    741 2915   26   1189 3255   27    803 2646   28   1356 3230   29   1212 2992   30   1577 2493   31    338   56   32   1245 2805   33   1696 2938   34    786 3220   35    603 3079   36   1502 3107   37    955 3093   38   1309 2927   39   1233 3038   40   2436 2705  ,11,19,2024,18,8,37,12.1,1521,170.7,161,-160.4,0.075,18.71,399 257,1519 285,1322 261,1606 264,1175 331,1130 324,1684 314,1513 335,524 301,1196 313,754 311,587 332,1057 322,1594 319,1113 257,1254 292,1108 282,917 330,767 263,727 286,804 358,720 306,1430 324,1078 8,741 291,1189 325,803 264,1356 323,1212 299,1577 249,338 5,1245 280,54,:5:70A :17AE70AE36542331B4D1AAF135C2371146D1AB6134F237D14671AA91349236E14621AAB13552366146A1AAE1352237D14681AB310FA237414501AA40866236B13E91AA701DE236D12961AAF00EA237011711AAF011F236D11961AB002382374129A1AA90412236413581AA9063F236B13BB1AA60882236214011AB10A91236D14271AAA06DD236512541AA70F10237114571AAF0FC4236B145A1AB8106C236D145E1AA411062366145C1AAB11882366145E1AA111E8235A145F1AA31233236A145D1AA31273236B145D1AA612A6236B145D1AA512C92369145E1AAE12EB237214633D443DF91B5090  ,:5:70A :17AE70AE36542331B4D1AAF135C2371146D1AB6134F237D14671AA91349236E14621AAB13552366146A1AAE1352237D14681AB310FA237414501AA40866236B13E91AA701DE236D12961AAF00EA237011711AAF011F236D11961AB002382374129A1AA90412236413581AA9063F236B13BB1AA60882236214011AB10A91236D14271AAA06DD236512541AA70F10237114571AAF0FC4236B145A1AB8106C236D145E1AA411062366145C1AAB11882366145E1AA111E8235A145F1AA31233236A145D1AA31273236B145D1AA612A6236B145D1AA512C92369145E1AAE12EB237214633D443DF91B5090  ,54,18.71,12.44,12.52,1.771,0.098,0,0,0
2024-11-21T19:00:00Z,53,41.38522,2.19572,11,259,287,0.56,289,0.56,1002.2,46,19.6,7.7,1.2,53,37-26087,18.5024,4E-05,-0.19,NAN,53, 11 19 2024 17 8 37 0 44 12.1 1521.3 171.2 161.1 -160.5 0.076 18.76 0 0    1    595 2983    2   2037 2549    3   1852 3030    4   1560 2686    5   1584 2494    6    336 2891    7   1637 2862    8   1055 3020    9   1245 2866   10    613 3556   11    558 2798   12   1065 2740   13   1485 2846   14    901 2820   15   1116 2960   16   1273 2955   17   1478 2758   18    939 2749   19   1508 3125   20   1112 2868   21   1465 2642   22    885 2915   23   1326 2902   24   1461 3085   25   1197 2493   26   1075 2581   27   2062 2526   28   1028 2981   29   2062 2769   30   1333 2440   31   1163 3057   32   1557 3050   33   1707 2908   34   1391 3400   35   1050 2828   36    955 2614   37   1442 2563   38   1398 2609   39   1144 3022   40    274 3546  ,11,19,2024,17,8,37,12.1,1521,171.2,161.1,-160.5,0.076,18.76,595 298,2037 254,1852 303,1560 268,1584 249,336 289,1637 286,1055 302,1245 286,613 355,558 279,1065 274,1485 284,901 282,1116 296,1273 295,1478 275,939 274,1508 312,1112 286,1465 264,885 291,1326 290,1461 308,1197 249,1075 258,2062 252,1028 298,2062 276,1333 244,1163 305,1557 305,53,:5:70A :17AE70AE36534231B371AB11348237814551AA31345237214521AAF1343236514491AA81340237714531AA513412367144D1AA810F9236C14371AA208E3236C13E41AA501CA237112811AAA00DC2370114E1AAF01202375119B1AA602282368127A1AB003D4237313311AB406092373139C1AAA0844237313E11AB50A6C236D140E1AA20C192359141F1AAC0D9F237514321AA50EF1236B14491AA30FE3236B14481AA610B3236A144C1AAD113D237214471AA811B2236A14451AAD12162370144B1AAA1258236614461AA5128C236A14411AB112BF236A144E1A9A12D9236B144B3D453DF91B37FA  ,:5:70A :17AE70AE36534231B371AB11348237814551AA31345237214521AAF1343236514491AA81340237714531AA513412367144D1AA810F9236C14371AA208E3236C13E41AA501CA237112811AAA00DC2370114E1AAF01202375119B1AA602282368127A1AB003D4237313311AB406092373139C1AAA0844237313E11AB50A6C236D140E1AA20C192359141F1AAC0D9F237514321AA50EF1236B14491AA30FE3236B14481AA610B3236A144C1AAD113D237214471AA811B2236A14451AAD12162370144B1AAA1258236614461AA5128C236A14411AB112BF236A144E1A9A12D9236B144B3D453DF91B37FA  ,53,18.69,12.45,12.52,1.479,0.092,0,0,0
2024-11-21T18:00:00Z,52,41.38524,2.195603,8,102,130,0.71,132,0.71,1002.6,45,19.7,7.7,1.2,52,37-26087,18.4761,3E-05,-0.187,NAN,52, 11 19 2024 16 8 37 0 44 12.1 1521.3 171.2 161.1 -160.5 0.080 18.76 0 0    1    751 2297    2    753 2691    3   1767 3135    4    916 2439    5   1219 2974    6   1824 3005    7   1059 2598    8   1549 2633    9    637 2534   10    782 2995   11   1151 2901   12   1262 2739   13   1053 2798   14   1544 2783   15   1830 2912   16    779 2783   17   1623 2382   18    673 3108   19   1762 3126   20    954 2540   21   1312 2956   22    652 2924   23   1594 3119   24    644 3054   25   1080 2595   26   1444 3369   27   1029 3062   28    861 2815   29    906 2788   30   1637 2727   31   1232 2922   32   1338 2877   33    744 2928   34   1336 2865   35   1302 2222   36   1509 3538   37    693 2988   38   1842 3049   39   1125 2699   40   1324 2875  ,11,19,2024,16,8,37,12.1,1521,171.2,161.1,-160.5,0.08,18.76,751 229,753 269,1767 313,916 243,1219 297,1824 300,1059 259,1549 263,637 253,782 299,1151 290,1262 273,1053 279,1544 278,1830 291,779 278,1623 238,673 310,1762 312,954 254,1312 295,652 292,1594 311,644 305,1080 259,1444 336,1029 306,861 281,906 278,1637 272,1232 292,1338 287,52,:5:70A :17AE70AE36526131B331AA8133A236B14401AAA133B237814461AAC13332373143F1AA51338236E143E1AA6133C237014431AB3108A236D142A1AA60834236813C61AA30196236B12631AA300DE236B11591AA70142236611CE1AA60259236812971AA104032368133B1AA60632236A13A31AA40876236313DD1AA60A4E236E13F91AA40C4A236514191AA00DC5236714291AAA0EF7236A14331AA50FE3236A14311A9F109B2362143D1AAA11312366143A1AAC119F236D14391AA811FD236E142D1AB41243237314341AA11275235A142C1AB112A9237214361AA812CC236314353D443DF71B3026  ,:5:70A :17AE70AE36526131B331AA8133A236B14401AAA133B237814461AAC13332373143F1AA51338236E143E1AA6133C237014431AB3108A236D142A1AA60834236813C61AA30196236B12631AA300DE236B11591AA70142236611CE1AA60259236812971AA104032368133B1AA60632236A13A31AA40876236313DD1AA60A4E236E13F91AA40C4A236514191AA00DC5236714291AAA0EF7236A14331AA50FE3236A14311A9F109B2362143D1AAA11312366143A1AAC119F236D14391AA811FD236E142D1AB41243237314341AA11275235A142C1AB112A9237214361AA812CC236314353D443DF71B3026  ,52,18.65,12.44,12.52,1.594,0.099,0,0,0
2024-11-21T17:00:00Z,51,41.38534,2.195655,17,137,165,0.64,167,0.64,1002.7,47,19.7,8,1.2,51,37-26087,18.5003,3E-05,-0.187,NAN,51, 11 19 2024 15 8 37 0 44 12.1 1521.4 170.2 161.0 -160.4 0.081 18.80 0 0    1    926 2670    2    882 3149    3    890 2956    4   1810 2853    5   1491 3103    6   1039 2894    7   1731 2758    8   1246 2885    9   1243 3078   10   1128 2606   11   1038 2992   12    663 2396   13   1043 2501   14   1344 2841   15   1591 2704   16   1292 3317   17   1628 3250   18   1120 3003   19   1303 2784   20   1833 2756   21   1267 3396   22   1235 2876   23   1537 2799   24   1219 2928   25   1394 2718   26    808 2977   27   1695 2703   28   1474 2584   29    921 3466   30    781 2813   31   1153 2884   32   1109 2996   33   1375 2932   34   1322 2308   35    808 2463   36    446 2990   37   1171 2569   38   1747 2834   39   1051 2848   40   1138 2931  ,11,19,2024,15,8,37,12.1,1521,170.2,161,-160.4,0.081,18.8,926 267,882 314,890 295,1810 285,1491 310,1039 289,1731 275,1246 288,1243 307,1128 260,1038 299,663 239,1043 250,1344 284,1591 270,1292 331,1628 325,1120 300,1303 278,1833 275,1267 339,1235 287,1537 279,1219 292,1394 271,808 297,1695 270,1474 258,921 346,781 281,1153 288,1109 299,51,:5:70A :17AE70AE36518041B2E1AA713262376142E1AA3131F236914231AA11323236814291AA41320236814241A9D132C236814311A9F0F19236113FA1A9F076E237113AC1AA001712363123D1AAD00F82378118B1A930146235E11E71AA30271236612A41AA7045F236813401AA706A8236813A21AAD08E9236A13DB1AA20AC9236A13F71AA10C772372140C1AA30DC7236014141A9B0EE3236114231AB00FBE2371142A1AA0106D235F14221AA21103236814241AA7116B236514241AA911CC235C141D1AA212182361141A1AA2125D236614201AA512812364141D1A9F12A6236414223D473DFA1B31AF  ,:5:70A :17AE70AE36518041B2E1AA713262376142E1AA3131F236914231AA11323236814291AA41320236814241A9D132C236814311A9F0F19236113FA1A9F076E237113AC1AA001712363123D1AAD00F82378118B1A930146235E11E71AA30271236612A41AA7045F236813401AA706A8236813A21AAD08E9236A13DB1AA20AC9236A13F71AA10C772372140C1AA30DC7236014141A9B0EE3236114231AB00FBE2371142A1AA0106D235F14221AA21103236814241AA7116B236514241AA911CC235C141D1AA212182361141A1AA2125D236614201AA512812364141D1A9F12A6236414223D473DFA1B31AF  ,51,18.64,12.44,12.52,1.828,0.09,0,0,0
2024-11-21T16:00:00Z,50,41.3852,2.195716,38,289,318,0.41,320,0.41,1003.1,47,19.8,8.2,1.2,50,37-26087,18.4306,3E-05,-0.182,NAN,50, 11 19 2024 14 8 37 0 44 12.1 1521.7 170.2 161.0 -160.4 0.085 18.88 0 0    1   1126 2985    2    480 3006    3   1673 2902    4    809 2254    5   2272 2785    6   1079 3075    7    598 3075    8   1637 2690    9   1208 3141   10   1645 2960   11   1301 2698   12   1246 2462   13    596 2807   14    408 2899   15   1178 2696   16    936 2712   17    850 2415   18   1874 2801   19    854 2897   20   1461 3065   21   1296 2692   22   1234 3021   23   1551 2824   24    876 2772   25    666 2629   26   1822 2764   27   1617 2869   28    930 3082   29   1106 2946   30   1079 2568   31   1154 3055   32    858 2770   33    948 2886   34   1136 3030   35   1295 2808   36   1822 3104   37   1211 3225   38    872 3288   39   1232 3285   40    912 2726  ,11,19,2024,14,8,37,12.1,1522,170.2,161,-160.4,0.085,18.88,1126 298,480 300,1673 290,809 225,2272 278,1079 307,598 307,1637 269,1208 314,1645 296,1301 269,1246 246,596 280,408 289,1178 269,936 271,850 241,1874 280,854 289,1461 306,1296 269,1234 302,1551 282,876 277,666 262,1822 276,1617 286,930 308,1106 294,1079 256,1154 305,858 277,50,:5:70A :17AE70AE36509F31B2A1AAD1315237A141B1AAA1311236C14181A99130C235E14141AA71315237014161A99130F236514161A9B0F29236413E91AA50759236F13911A9D0171236512341A9900F5236911851AAE01672371120E1AA9028A236B12AC1AA20443236C132A1AA306672361138A1A9D0897236113BD1A9D0A97236613E21A9D0C3D236213F71AA30D99236B14051AA50EAD2368140C1A9B0F8A236614131AA01048236A14161A9E10D7236214121A9E114C2365140F1AAE11B02374140E1A9D11FD236314121AAD1237236B140B1A98126A2363140D1AB41292237014123D473DFB1B281D  ,:5:70A :17AE70AE36509F31B2A1AAD1315237A141B1AAA1311236C14181A99130C235E14141AA71315237014161A99130F236514161A9B0F29236413E91AA50759236F13911A9D0171236512341A9900F5236911851AAE01672371120E1AA9028A236B12AC1AA20443236C132A1AA306672361138A1A9D0897236113BD1A9D0A97236613E21A9D0C3D236213F71AA30D99236B14051AA50EAD2368140C1A9B0F8A236614131AA01048236A14161A9E10D7236214121A9E114C2365140F1AAE11B02374140E1A9D11FD236314121AAD1237236B140B1A98126A2363140D1AB41292237014123D473DFB1B281D  ,50,18.56,12.44,12.52,12.53,0.09,0,0,0
2024-11-21T15:00:00Z,49,100,1000,7999,179,208,1000,NAN,0.25,1003.6,48,19.7,8.6,1.2,49,37-26087,18.3604,3E-05,-0.178,NAN,49, 11 19 2024 13 8 37 0 44 12.1 1521.7 170.8 160.9 -160.5 0.091 18.89 0 0    1    113 2376    2    861 3046    3   1692 2994    4   1096 3012    5   1972 2688    6    677 3463    7    993 2872    8   1798 2522    9   1166 2652   10   1058 2743   11   1127 2910   12    588 3024   13   1012 2988   14    361 2856   15   1310 3126   16    830 2955   17   1135 2990   18   1728 3046   19   1029 3040   20    997 2989   21   1249 2650   22   1550 2859   23   2062 2822   24    918 2965   25   1305 2478   26   1441 2441   27   1061 2934   28    617 2401   29    509 2905   30   1695 2945   31   1110 2798   32   1535 2601   33   1266 3037   34   1273 3030   35    843 2734   36   1090 3071   37   1207 3196   38    748 2692   39    721 2457   40   1426 2458  ,11,19,2024,13,8,37,12.1,1522,170.8,160.9,-160.5,0.091,18.89,113 237,861 304,1692 299,1096 301,1972 268,677 346,993 287,1798 252,1166 265,1058 274,1127 291,588 302,1012 298,361 285,1310 312,830 295,1135 299,1728 304,1029 304,997 298,1249 265,1550 285,2062 282,918 296,1305 247,1441 244,1061 293,617 240,509 290,1695 294,1110 279,1535 260,49,:5:70A :17AE70AE364FBE31B211AA313062375140A1AA112FF236D13FD1A9912FF236B14021A9F1304236713FB1A9D12F9236813FB1AA310A9236A13DE1A9506D92364134F1A9B01AF235F12171AAB00F6236D11491A910154236611A61A980257235A12571A9703EF235C12F71AA205FE236213581A9A081E235B13921AA30A25235E13C31AA40BE5236513D91A940D5F236313E81A9C0E96236113EC1A9C0F86236413F91A9F1055236613FC1AA810EC236713F71AA51174236613FF1A9F11CC236113FF1A9D1211235E13F91AA2124B235F13F81AA3127B236613FA1A9A129D236413FA3D543E091B2264  ,:5:70A :17AE70AE364FBE31B211AA313062375140A1AA112FF236D13FD1A9912FF236B14021A9F1304236713FB1A9D12F9236813FB1AA310A9236A13DE1A9506D92364134F1A9B01AF235F12171AAB00F6236D11491A910154236611A61A980257235A12571A9703EF235C12F71AA205FE236213581A9A081E235B13921AA30A25235E13C31AA40BE5236513D91A940D5F236313E81A9C0E96236113EC1A9C0F86236413F91A9F1055236613FC1AA810EC236713F71AA51174236613FF1A9F11CC236113FF1A9D1211235E13F91AA2124B235F13F81AA3127B236613FA1A9A129D236413FA3D543E091B2264  ,49,18.36,12.46,12.53,12.54,0.097,0,0,0
2024-11-21T14:00:00Z,48,41.38521,2.195591,29,122,151,1.19,153,1.19,1003.9,48,19.3,8.2,1.2,48,37-26087,18.1758,3E-05,-0.175,NAN,48, 11 19 2024 12 8 37 0 44 12.1 1521.7 170.3 160.6 -160.5 0.094 18.90 0 0    1   1164 2514    2   1019 2984    3   1075 2591    4    855 3147    5   1488 3176    6   1139 3225    7    716 2717    8   1089 2801    9    884 2949   10   1032 3412   11   1025 2272   12   1357 2891   13   1749 3236   14   1472 2582   15   1332 3012   16    739 2694   17    347  286   18   1751 2438   19   1267 2951   20    965 3293   21    839 2525   22   1095 3117   23   1137 3115   24   1685 2631   25   1628 3225   26   1212 2504   27   1066 3161   28   1251 3222   29    459 3076   30   1930 2463   31   1491 2286   32   1119 3332   33   1321 2455   34   1721 3064   35   1013 2970   36   1767 2959   37   1155 2655   38   1189 2148   39   1590 2615   40   1667 2591  ,11,19,2024,12,8,37,12.1,1522,170.3,160.6,-160.5,0.094,18.9,1164 251,1019 298,1075 259,855 314,1488 317,1139 322,716 271,1089 280,884 294,1032 341,1025 227,1357 289,1749 323,1472 258,1332 301,739 269,347 28,1751 243,1267 295,965 329,839 252,1095 311,1137 311,1685 263,1628 322,1212 250,1066 316,1251 322,459 307,1930 246,1491 228,1119 333,48,:5:70A :17AE70AE364EDD31B171AB01306237C14011AA012F1236E13EF1A9212F2236013EE1AA712EF236E13EF1AA312ED237413EA1A9D10E0236F13E01A9105912364132F1A9B0178235C11E61A9C00F2236111401AA1015E236811A01A9A0259236812431A9D03E3235D12CB1A8F05F92355133E1A950820236713811AA20A23236313B01A990BE9235F13CD1A8E0D54235C13D51AA00E89236613E41A9F0F96236913EF1A951049235C13E21A9C10ED236513E71AA11168236C13E81A9911BF236413E61A98120B236513ED1A94123F235F13DE1A981267236713E01A96128F235713E23D5B3E121B1A0D  ,:5:70A :17AE70AE364EDD31B171AB01306237C14011AA012F1236E13EF1A9212F2236013EE1AA712EF236E13EF1AA312ED237413EA1A9D10E0236F13E01A9105912364132F1A9B0178235C11E61A9C00F2236111401AA1015E236811A01A9A0259236812431A9D03E3235D12CB1A8F05F92355133E1A950820236713811AA20A23236313B01A990BE9235F13CD1A8E0D54235C13D51AA00E89236613E41A9F0F96236913EF1A951049235C13E21A9C10ED236513E71AA11168236C13E81A9911BF236413E61A98120B236513ED1A94123F235F13DE1A981267236713E01A96128F235713E23D5B3E121B1A0D  ,48,18.12,12.46,12.54,12.55,0.094,0,0,0
2024-11-21T13:00:00Z,47,41.38525,2.195693,21,277,306,0.64,308,0.64,1004.9,52,18.6,8.8,1.2,47,37-26087,18.0693,3E-05,-0.165,NAN,47, 11 19 2024 11 8 37 0 44 12.1 1522.5 169.3 161.2 -160.5 0.106 19.18 0 0    1    818 3179    2   1684 2552    3   1249 2901    4   1844 3260    5   1354 2770    6    902 2853    7   1224 2748    8   1422 2782    9   1009 3184   10   1392 3128   11    783 3195   12   1245 2991   13    758 3074   14   1166 3167   15    630 3075   16    723 2753   17    538 3179   18   2237 3004   19   1337 2567   20    584 3591   21   1017 3116   22    673 3190   23    694 3243   24   1000 2728   25   1383 2888   26   1041 3009   27   1159 3099   28    121 1180   29   1474 3086   30   1915 2661   31   1087 2849   32    897 2909   33    862 3079   34   1437 2657   35    431 3294   36   1748 3307   37   1189 2870   38   1657 3331   39   1364 2203   40   1008 2468  ,11,19,2024,11,8,37,12.1,1523,169.3,161.2,-160.5,0.106,19.18,818 317,1684 255,1249 290,1844 326,1354 277,902 285,1224 274,1422 278,1009 318,1392 312,783 319,1245 299,758 307,1166 316,630 307,723 275,538 317,2237 300,1337 256,584 359,1017 311,673 319,694 324,1000 272,1383 288,1041 300,1159 309,121 118,1474 308,1915 266,1087 284,897 290,47,:5:70A :17AE70AE364DFC31AF01A9D12F7237213EC1A8C12EE236513E71A9A12EC236A13E21A8712F0235F13E61A8912F2235513EB1A810F30235513B01A8D06CD235E13671A960175236C12281A8F00E2236611591A910135236011891A830233236512191A8903A6234C12A81A8B05872359131D1A8F0795236413691A9209AE235C13991A950BAF235E13B81A8C0D4D236113D01A990E86236613D51A8F0F83236413DA1A97104D236213D71A8B10E0235513CC1A97115D236713D81A8911BC235F13D71A9C1200236513D61AA11235237213D41A881261235C13D71A951281236013D73D5B3E121AEEA1  ,:5:70A :17AE70AE364DFC31AF01A9D12F7237213EC1A8C12EE236513E71A9A12EC236A13E21A8712F0235F13E61A8912F2235513EB1A810F30235513B01A8D06CD235E13671A960175236C12281A8F00E2236611591A910135236011891A830233236512191A8903A6234C12A81A8B05872359131D1A8F0795236413691A9209AE235C13991A950BAF235E13B81A8C0D4D236113D01A990E86236613D51A8F0F83236413DA1A97104D236213D71A8B10E0235513CC1A97115D236713D81A8911BC235F13D71A9C1200236513D61AA11235237213D41A881261235C13D71A951281236013D73D5B3E121AEEA1  ,47,17.89,12.46,12.53,12.55,0.09,0,0,0
2024-11-21T12:00:00Z,46,41.38534,2.195756,30,254,283,0.42,285,0.42,1006.2,47,18.7,7.4,1.2,46,37-26087,18.3102,3E-05,-0.151,NAN,46, 11 19 2024 10 8 37 0 44 12.1 1525.2 170.2 161.2 -160.5 0.125 20.15 0 0    1   1009 2608    2   1528 2625    3    561 3147    4    948 3099    5   1078 3243    6   1265 2719    7   1129 3192    8   1727 3163    9   1812 2620   10   1372 2845   11    640 2670   12    172 3593   13   1043 3206   14    548 3100   15    549 2884   16    674 2659   17   1210 3083   18   1382 2537   19   1036 2779   20    823 2958   21   1146 2933   22   1643 2685   23   1768 2771   24   1720 2858   25    791 2959   26   1323 2546   27   1267 3040   28   1546 2952   29   1205 3091   30    336 2027   31   1343 3161   32   1689 2274   33    938 2872   34    965 2866   35   1250 3414   36   1502 2892   37   1405 2510   38    747 2652   39    892 3453   40   1450 2785  ,11,19,2024,10,8,37,12.1,1525,170.2,161.2,-160.5,0.125,20.15,1009 260,1528 262,561 314,948 309,1078 324,1265 271,1129 319,1727 316,1812 262,1372 284,640 267,172 359,1043 320,548 310,549 288,674 265,1210 308,1382 253,1036 277,823 295,1146 293,1643 268,1768 277,1720 285,791 295,1323 254,1267 304,1546 295,1205 309,336 202,1343 316,1689 227,46,:5:70A :17AE70AE364D1B31A6D1A8312F7237613E71A6B12E6236013D21A6712ED235A13DB1A7B12F2236113DC1A7012DD235B13CB1A7E0FFD236913A91A7C08E9235B13B21A7801B1235212B21A8000E8236411C31A760137235611CE1A78021A235B121B1A6C03B0235512A11A7B05D5235513071A7B08192360134C1A800A0F235B13781A7A0BEF235513971A7C0D57235A13A61A730E91235B13C21A7B0F7A236113CB1A7E103F235713CE1A7510D7235613CE1A72114F235813D71A76119E235413C61A7311E8235313C91A7A1226236913D01A79125C236213CD1A701272235513CB3D453DF91A8A79  ,:5:70A :17AE70AE364D1B31A6D1A8312F7237613E71A6B12E6236013D21A6712ED235A13DB1A7B12F2236113DC1A7012DD235B13CB1A7E0FFD236913A91A7C08E9235B13B21A7801B1235212B21A8000E8236411C31A760137235611CE1A78021A235B121B1A6C03B0235512A11A7B05D5235513071A7B08192360134C1A800A0F235B13781A7A0BEF235513971A7C0D57235A13A61A730E91235B13C21A7B0F7A236113CB1A7E103F235713CE1A7510D7235613CE1A72114F235813D71A76119E235413C61A7311E8235313C91A7A1226236913D01A79125C236213CD1A701272235513CB3D453DF91A8A79  ,46,17.59,12.44,12.51,12.49,0.121,0,0,0
2024-11-21T11:00:00Z,45,41.38538,2.195731,42,65,94,0.31,96,0.31,1007.1,49,18.4,7.6,1.2,,,,,,,45, 11 19 2024 9 8 40 0 44 12.1 1530.8 175.7 161.2 -160.7 0.146 22.28 0 0    1    602 3138    2   1043 2780    3    349 1666    4    873 3197    5    659 2933    6   1037 3105    7   1228 2810    8   1358 2390    9   1048 2744   10    795 2782   11   1094 2851   12    791 3049   13   1438 2838   14   1399 2958   15   1227 3263   16   1344 3209   17   1456 3372   18   1128 3383   19   1482 2679   20   1223 3019   21   1187 3010   22   1354 2969   23   1042 2763   24   1253 2625   25    523 3369   26   1202 2572   27    450 3024   28    719 3270   29   1121 2880   30   1181 3238   31    858 2888   32   1002 3205   33   1408 2953   34   1375 3346   35   1339 2721   36    947 2285   37   1075 2825   38    589 2694   39   1077 3033   40    956 3115  ,11,19,2024,9,8,40,12.1,1531,175.7,161.2,-160.7,0.146,22.28,602 313,1043 278,349 166,873 319,659 293,1037 310,1228 281,1358 239,1048 274,795 278,1094 285,791 304,1438 283,1399 295,1227 326,1344 320,1456 337,1128 338,1482 267,1223 301,1187 301,1354 296,1042 276,1253 262,523 336,1202 257,450 302,719 327,1121 288,1181 323,858 288,1002 320,45,:5:70A :17AE70AE364C3A619891A4412E4235A13CD1A4512E7236613CD1A3B12E5235813C71A3B12E8235913C31A4712E8235513CC1A4611EC235213BC1A420A322359138E1A4D0258235612AE1A4900B6235A11DB1A4100E7235111DB1A4901A1235712011A420303234E12781A4704FD235212FC1A4D0754235B135E1A4A0994235613981A4E0B98235613C01A460D33234B13D41A4C0E84235113C71A4D0F98235513C91A4D105A235513C31A4510F8235313BC1A43117B234B13C21A3B11D2234A13B71A4E1218235513C31A3E124A234213BB1A421275234D13BC1A4F1295235813BF3D853E2919A14A  ,:5:70A :17AE70AE364C3A619891A4412E4235A13CD1A4512E7236613CD1A3B12E5235813C71A3B12E8235913C31A4712E8235513CC1A4611EC235213BC1A420A322359138E1A4D0258235612AE1A4900B6235A11DB1A4100E7235111DB1A4901A1235712011A420303234E12781A4704FD235212FC1A4D0754235B135E1A4A0994235613981A4E0B98235613C01A460D33234B13D41A4C0E84235113C71A4D0F98235513C91A4D105A235513C31A4510F8235313BC1A43117B234B13C21A3B11D2234A13B71A4E1218235513C31A3E124A234213BB1A421275234D13BC1A4F1295235813BF3D853E2919A14A  ,45,17.15,12.48,12.55,12.56,0.092,0,0,0
2024-11-21T10:00:00Z,44,41.38527,2.195813,34,87,116,0.52,118,0.52,1008.2,52,17.9,8,1.2,,,,,,,,,,,,,,,,,,,,,,,,,,,,,,,,,,,,,,,,,,,,,,,,,,,,,,,,,44,16.6,12.51,12.58,12.59,0.1,0,0,0
2024-11-21T09:00:00Z,43,41.38572,2.195571,28,294,325,0.28,327,0.28,1009,56,16.9,8.1,1.2,,,,,,,,,,,,,,,,,,,,,,,,,,,,,,,,,,,,,,,,,,,,,,,,,,,,,,,,,43,16.24,12.46,12.53,12.53,0.09,0,0,0
2024-11-21T08:00:00Z,42,41.38534,2.195721,48,324,353,0.12,355,0.12,1009.7,62,16.3,9.1,1.2,,,,,,,,,,,,,,,,,,,,,,,,,,,,,,,,,,,,,,,,,,,,,,,,,,,,,,,,,42,16.08,12.47,12.54,12.55,0.091,0,0,0
2024-11-21T07:00:00Z,41,100,1000,7999,289,318,1000,NAN,0.39,1009.8,69,15.4,9.8,1.2,,,,,,,,,,,,,,,,,,,,,,,,,,,,,,,,,,,,,,,,,,,,,,,,,,,,,,,,,41,16.2,12.45,12.52,12.53,0.091,0,0,0
2024-11-21T06:00:00Z,40,41.38579,2.195585,-60,278,345,0.16,347,0.18,1010.2,71,15.1,10.1,1.2,,,,,,,,,,,,,,,,,,,,,,,,,,,,,,,,,,,,,,,,,,,,,,,,,,,,,,,,,40,16.46,12.45,12.51,1.192,0.092,0,0,0
2024-11-21T05:00:00Z,39,41.38527,2.195708,4,256,312,0.41,314,0.26,1010.5,74,15.2,10.7,1.2,,,,,,,,,,,,,,,,,,,,,,,,,,,,,,,,,,,,,,,,,,,,,,,,,,,,,,,,,39,16.72,12.45,12.52,1.634,0.09,0,0,0
2024-11-21T04:00:00Z,38,41.385,2.195536,63,238,267,0.49,269,0.49,1011,74,16.1,11.6,1.2,,,,,,,,,,,,,,,,,,,,,,,,,,,,,,,,,,,,,,,,,,,,,,,,,,,,,,,,,38,16.88,12.45,12.52,1.178,0.092,0,0,0
2024-11-21T03:00:00Z,37,41.38533,2.19586,13,298,327,0.4,329,0.4,1011.4,77,16.3,12.3,1.2,,,,,,,,,,,,,,,,,,,,,,,,,,,,,,,,,,,,,,,,,,,,,,,,,,,,,,,,,37,16.98,12.45,12.52,1.139,0.092,0,0,0
2024-11-21T02:00:00Z,36,41.38527,2.195665,18,211,240,0.38,242,0.36,1011.8,79,16.4,12.7,1.2,,,,,,,,,,,,,,,,,,,,,,,,,,,,,,,,,,,,,,,,,,,,,,,,,,,,,,,,,36,17.07,12.44,12.5,1.663,0.118,0,0,0
2024-11-21T01:00:00Z,35,100,1000,7999,182,211,1000,NAN,0.96,1012,76,16.4,12.2,1.2,,,,,,,,,,,,,,,,,,,,,,,,,,,,,,,,,,,,,,,,,,,,,,,,,,,,,,,,,35,17.25,12.45,12.51,1.206,0.128,0,0,0
2024-11-21T00:00:00Z,34,100,1000,7999,159,188,1000,NAN,1.16,1012.4,76,16.4,12.3,1.2,,,,,,,,,,,,,,,,,,,,,,,,,,,,,,,,,,,,,,,,,,,,,,,,,,,,,,,,,34,17.44,12.45,12.51,1.655,0.114,0,0,0
2024-11-20T23:00:00Z,33,41.38527,2.19583,45,142,171,1.35,173,1.35,1012.2,78,16.7,13,1.2,,,,,,,,,,,,,,,,,,,,,,,,,,,,,,,,,,,,,,,,,,,,,,,,,,,,,,,,,33,17.7,12.45,12.51,1.158,0.115,0,0,0
2024-11-20T22:00:00Z,32,41.38535,2.195562,45,299,328,0.06,330,0.06,1011.7,63,17.3,10.3,1.2,,,,,,,,,,,,,,,,,,,,,,,,,,,,,,,,,,,,,,,,,,,,,,,,,,,,,,,,,32,17.92,12.45,12.52,1.128,0.118,0,0,0
2024-11-20T21:00:00Z,31,41.38536,2.195668,46,100,129,0.11,131,0.11,1011.1,53,17.6,8.1,1.2,,,,,,,,,,,,,,,,,,,,,,,,,,,,,,,,,,,,,,,,,,,,,,,,,,,,,,,,,31,18.09,12.45,12.52,1.698,0.124,0,0,0
2024-11-20T20:00:00Z,30,41.38534,2.195666,31,158,187,0.33,189,0.33,1010.6,52,18.1,8.2,1.2,,,,,,,,,,,,,,,,,,,,,,,,,,,,,,,,,,,,,,,,,,,,,,,,,,,,,,,,,30,18.25,12.44,12.51,1.079,0.132,0,0,0
2024-11-20T19:00:00Z,29,41.38517,2.195636,7,54,90,0.25,92,0.32,1010.2,52,18.3,8.4,1.2,,,,,,,,,,,,,,,,,,,,,,,,,,,,,,,,,,,,,,,,,,,,,,,,,,,,,,,,,29,18.42,12.45,12.52,1.526,0.126,0,0,0
2024-11-20T18:00:00Z,28,41.38525,2.195621,14,64,92,0.15,94,0.15,1010.1,51,18.7,8.6,1.2,,,,,,,,,,,,,,,,,,,,,,,,,,,,,,,,,,,,,,,,,,,,,,,,,,,,,,,,,28,18.59,12.45,12.52,1.153,0.122,0,0,0
2024-11-20T17:00:00Z,27,41.38525,2.195655,24,248,276,0.6,278,0.6,1010.1,51,18.9,8.7,1.2,,,,,,,,,,,,,,,,,,,,,,,,,,,,,,,,,,,,,,,,,,,,,,,,,,,,,,,,,27,18.75,12.45,12.52,1.363,0.118,0,0,0
2024-11-20T16:00:00Z,26,41.38507,2.195582,-5,101,129,1.22,131,1.22,1009.6,51,19.4,9.2,1.2,,,,,,,,,,,,,,,,,,,,,,,,,,,,,,,,,,,,,,,,,,,,,,,,,,,,,,,,,26,18.8,12.46,12.53,12.54,0.088,0,0,0
2024-11-20T15:00:00Z,25,100,1000,7999,113,141,1000,NAN,0.3,1008.9,50,20,9.5,1.2,,,,,,,,,,,,,,,,,,,,,,,,,,,,,,,,,,,,,,,,,,,,,,,,,,,,,,,,,25,18.62,12.47,12.54,12.55,0.092,0,0,0
2024-11-20T14:00:00Z,24,41.38521,2.195633,30,115,143,0.93,145,0.93,1008.9,51,20.1,9.8,1.2,,,,,,,,,,,,,,,,,,,,,,,,,,,,,,,,,,,,,,,,,,,,,,,,,,,,,,,,,24,18.25,12.48,12.55,12.57,0.091,0,0,0
2024-11-20T13:00:00Z,23,41.38524,2.195691,27,69,97,0.45,99,0.45,1009.3,53,19.1,9.5,1.2,,,,,,,,,,,,,,,,,,,,,,,,,,,,,,,,,,,,,,,,,,,,,,,,,,,,,,,,,23,17.9,12.49,12.56,12.58,0.093,0,0,0
2024-11-20T12:00:00Z,22,41.3853,2.195728,32,295,323,0.35,325,0.35,1009.8,55,18.4,9.2,1.2,,,,,,,,,,,,,,,,,,,,,,,,,,,,,,,,,,,,,,,,,,,,,,,,,,,,,,,,,22,17.61,12.5,12.57,12.59,0.092,0,0,0
2024-11-20T11:00:00Z,21,41.38531,2.195691,33,96,130,0.17,132,0.16,1010.1,55,17.9,8.9,1.2,,,,,,,,,,,,,,,,,,,,,,,,,,,,,,,,,,,,,,,,,,,,,,,,,,,,,,,,,21,17.31,12.5,12.57,12.59,0.085,0,0,0
2024-11-20T10:00:00Z,20,41.38534,2.195675,25,55,85,0.67,87,0.67,1008.3,56,17.5,8.7,1.2,,,,,,,,,,,,,,,,,,,,,,,,,,,,,,,,,,,,,,,,,,,,,,,,,,,,,,,,,20,17.02,12.49,12.55,12.57,0.093,0,0,0
2024-11-20T09:00:00Z,19,41.38537,2.195633,31,171,200,0.59,202,0.59,1008.2,58,17.1,8.8,1.2,,,,,,,,,,,,,,,,,,,,,,,,,,,,,,,,,,,,,,,,,,,,,,,,,,,,,,,,,19,16.88,12.47,12.54,12.56,0.092,0,0,0
2024-11-20T08:00:00Z,18,41.38534,2.19568,59,318,347,1.15,349,1.15,1008.1,60,16.7,9.1,1.2,,,,,,,,,,,,,,,,,,,,,,,,,,,,,,,,,,,,,,,,,,,,,,,,,,,,,,,,,18,16.86,12.46,12.53,12.63,0.099,0,0,0
2024-11-20T07:00:00Z,17,100,1000,7999,119,148,1000,NAN,0.69,1007.7,59,16.8,8.9,1.2,,,,,,,,,,,,,,,,,,,,,,,,,,,,,,,,,,,,,,,,,,,,,,,,,,,,,,,,,17,16.86,12.46,12.53,10.05,0.097,0,0,0
2024-11-20T06:00:00Z,16,41.38562,2.195681,-49,103,129,0.9,131,0.92,1007.7,60,17,9.3,1.2,,,,,,,,,,,,,,,,,,,,,,,,,,,,,,,,,,,,,,,,,,,,,,,,,,,,,,,,,16,16.84,12.46,12.53,1.716,0.091,0,0,0
2024-11-20T05:00:00Z,15,41.38514,2.195491,-43,10,39,0.49,40.95,0.49,1008.3,62,17.2,9.8,1.2,,,,,,,,,,,,,,,,,,,,,,,,,,,,,,,,,,,,,,,,,,,,,,,,,,,,,,,,,15,16.78,12.46,12.54,1.3,0.092,0,0,0
2024-11-20T04:00:00Z,14,100,1000,7999,131,160,1000,NAN,0.91,1008.6,62,17.4,10.2,1.2,,,,,,,,,,,,,,,,,,,,,,,,,,,,,,,,,,,,,,,,,,,,,,,,,,,,,,,,,14,16.67,12.46,12.54,1.222,0.089,0,0,0
2024-11-20T03:00:00Z,13,41.3853,2.195389,-1,265,261,0.19,263,0.06,1009.2,63,17.3,10.3,1.2,,,,,,,,,,,,,,,,,,,,,,,,,,,,,,,,,,,,,,,,,,,,,,,,,,,,,,,,,13,16.6,12.47,12.54,1.407,0.09,0,0,0
2024-11-20T02:00:00Z,12,41.38529,2.195531,44,286,315,0.51,317,0.51,1010,65,16.8,10.2,1.2,,,,,,,,,,,,,,,,,,,,,,,,,,,,,,,,,,,,,,,,,,,,,,,,,,,,,,,,,12,16.64,12.47,12.54,1.643,0.089,0,0,0
2024-11-20T01:00:00Z,11,100,1000,7999,263,292,1000,NAN,0.05,1010.7,69,16.5,10.9,1.2,,,,,,,,,,,,,,,,,,,,,,,,,,,,,,,,,,,,,,,,,,,,,,,,,,,,,,,,,11,16.74,12.47,12.54,1.226,0.088,0,0,0
2024-11-20T00:00:00Z,10,100,1000,7999,312,341,1000,NAN,0.5,1011.3,67,16.9,10.8,1.2,,,,,,,,,,,,,,,,,,,,,,,,,,,,,,,,,,,,,,,,,,,,,,,,,,,,,,,,,10,16.77,12.46,12.53,1.794,0.101,0,0,0
2024-11-19T23:00:00Z,9,41.38527,2.194409,-9,131,160,0.13,162,0.13,1011.9,69,16.8,11.2,1.2,,,,,,,,,,,,,,,,,,,,,,,,,,,,,,,,,,,,,,,,,,,,,,,,,,,,,,,,,9,16.85,12.47,12.54,1.571,0.084,0,0,0
2024-11-19T22:00:00Z,8,41.38537,2.195235,39,313,342,0.46,344,0.46,1012.5,68,17,11.3,1.2,,,,,,,,,,,,,,,,,,,,,,,,,,,,,,,,,,,,,,,,,,,,,,,,,,,,,,,,,8,16.94,12.47,12.54,1.321,0.095,0,0,0
2024-11-19T21:00:00Z,7,41.3853,2.195641,37,284,313,0.32,315,0.32,1012.6,73,17,12.2,1.2,,,,,,,,,,,,,,,,,,,,,,,,,,,,,,,,,,,,,,,,,,,,,,,,,,,,,,,,,7,17.07,12.47,12.55,1.215,0.093,0,0,0
2024-11-19T20:00:00Z,6,41.3853,2.19572,50,291,321,0.12,323,0.1,1012.7,75,17.1,12.7,1.2,,,,,,,,,,,,,,,,,,,,,,,,,,,,,,,,,,,,,,,,,,,,,,,,,,,,,,,,,6,17.25,12.48,12.55,1.323,0.089,0,0,0
2024-11-19T19:00:00Z,5,41.38529,2.195793,20,298,327,0.24,329,0.24,1013.1,79,16.8,13.2,1.2,,,,,,,,,,,,,,,,,,,,,,,,,,,,,,,,,,,,,,,,,,,,,,,,,,,,,,,,,5,17.46,12.48,12.55,1.741,0.088,0,0,0
2024-11-19T18:00:00Z,4,41.3852,2.195585,17,355,24,0.3,25.95,0.3,1013.2,75,17.4,13,1.2,,,,,,,,,,,,,,,,,,,,,,,,,,,,,,,,,,,,,,,,,,,,,,,,,,,,,,,,,4,17.7,12.49,12.56,1.787,0.1,0,0,0
2024-11-19T17:00:00Z,3,41.38522,2.19564,14,235,264,0.7,266,0.7,1012.8,75,17.5,13.1,1.2,,,,,,,,,,,,,,,,,,,,,,,,,,,,,,,,,,,,,,,,,,,,,,,,,,,,,,,,,3,17.99,12.48,12.55,1.719,0.115,0,0,0
2024-11-19T16:00:00Z,2,41.38507,2.19564,-2,186,215,0.46,217,0.46,1012.8,75,17.9,13.4,1.2,,,,,,,,,,,,,,,,,,,,,,,,,,,,,,,,,,,,,,,,,,,,,,,,,,,,,,,,,2,18.27,12.5,12.57,12.57,0.119,0,0,0
2024-11-19T15:00:00Z,1,100,1000,7999,95,123,1000,125,1.09,1012.8,73,18.9,14.1,1.2,,,,,,,,,,,,,,,,,,,,,,,,,,,,,,,,,,,,,,,,,,,,,,,,,,,,,,,,,1,18.32,12.49,12.55,12.53,0.167,0,0,0
2024-11-19T14:00:00Z,0,41.38524,2.195588,63,66,94,1.43,96,1.43,1013.2,71,18.8,13.4,1.2,,,,,,,,,,,,,,,,,,,,,,,,,,,,,,,,,,,,,,,,,,,,,,,,,,,,,,,,,0,18.43,12.52,12.58,12.57,0.141,0,0,0
2024-11-19T13:16:00Z,13,41.3853,2.195656,58,68,96,1.29,98,1.29,1013.4,66,18.9,12.5,1.2,,,,,,,,,,,,,,,,,,,,,,,,,,,,,,,,,,,,,,,,,,,,,,,,,,,,,,,,,,,,,,,,,
2024-11-19T13:15:00Z,12,41.3853,2.195658,57,101,129,0.89,131,0.89,1013.5,65,18.9,12.3,1.2,,,,,,,,,,,,,,,,,,,,,,,,,,,,,,,,,,,,,,,,,,,,,,,,,,,,,,,,,,,,,,,,,
2024-11-19T13:14:00Z,11,41.3853,2.19566,57,65,93,1.09,95,1.09,1013.5,66,18.9,12.6,1.2,,,,,,,,,,,,,,,,,,,,,,,,,,,,,,,,,,,,,,,,,,,,,,,,,,,,,,,,,,,,,,,,,
2024-11-19T13:13:00Z,10,41.3853,2.195661,57,96,124,1.5,126,1.5,1013.5,66,18.9,12.6,1.2,,,,,,,,,,,,,,,,,,,,,,,,,,,,,,,,,,,,,,,,,,,,,,,,,,,,,,,,,,,,,,,,,
2024-11-19T13:12:00Z,9,41.38531,2.195671,57,59,87,1.2,89,1.2,1013.5,66,18.9,12.5,1.2,,,,,,,,,,,,,,,,,,,,,,,,,,,,,,,,,,,,,,,,,,,,,,,,,,,,,,,,,,,,,,,,,
2024-11-19T13:11:00Z,8,41.38533,2.195675,57,77,105,1.38,107,1.38,1013.5,66,18.9,12.6,1.2,,,,,,,,,,,,,,,,,,,,,,,,,,,,,,,,,,,,,,,,,,,,,,,,,,,,,,,,,,,,,,,,,
2024-11-19T13:10:00Z,7,41.38533,2.195675,57,112,140,1.32,142,1.32,1013.5,66,18.9,12.4,1.2,,,,,,,,,,,,,,,,,,,,,,,,,,,,,,,,,,,,,,,,,,,,,,,,,,,,,,,,,,,,,,,,,
2024-11-19T13:09:00Z,6,41.38533,2.195678,58,58,86,0.81,88,0.81,1013.5,65,18.8,12.3,1.2,,,,,,,,,,,,,,,,,,,,,,,,,,,,,,,,,,,,,,,,,,,,,,,,,,,,,,,,,,,,,,,,,
2024-11-19T13:08:00Z,5,41.38534,2.19568,58,99,127,1.64,129,1.64,1013.6,66,18.9,12.5,1.2,,,,,,,,,,,,,,,,,,,,,,,,,,,,,,,,,,,,,,,,,,,,,,,,,,,,,,,,,,,,,,,,,
2024-11-19T13:07:00Z,4,41.38534,2.195681,58,83,111,1.56,113,1.56,1013.5,67,18.9,12.8,1.2,,,,,,,,,,,,,,,,,,,,,,,,,,,,,,,,,,,,,,,,,,,,,,,,,,,,,,,,,,,,,,,,,
2024-11-19T13:06:00Z,3,41.38534,2.195685,57,98,126,1.42,128,1.42,1013.6,67,18.9,12.7,1.2,,,,,,,,,,,,,,,,,,,,,,,,,,,,,,,,,,,,,,,,,,,,,,,,,,,,,,,,,,,,,,,,,
2024-11-19T13:05:00Z,2,41.38534,2.195685,57,81,109,1.63,111,1.63,1013.6,66,18.9,12.5,1.2,,,,,,,,,,,,,,,,,,,,,,,,,,,,,,,,,,,,,,,,,,,,,,,,,,,,,,,,,,,,,,,,,
2024-11-19T13:04:00Z,1,41.38533,2.195686,58,89,117,1.1,119,1.1,1013.6,66,18.8,12.5,1.2,,,,,,,,,,,,,,,,,,,,,,,,,,,,,,,,,,,,,,,,,,,,,,,,,,,,,,,,,,,,,,,,,
2024-11-19T13:03:00Z,0,41.38533,2.195683,58,68,96,1.24,98,1.24,1013.6,65,18.8,12.3,1.2,,,,,,,,,,,,,,,,,,,,,,,,,,,,,,,,,,,,,,,,,,,,,,,,,,,,,,,,,,,,,,,,,
2024-11-19T08:00:00Z,,,,,,,,,,,,,,,,,,,,,,,,,,,,,,,,,,,,,,,,,,,,,,,,,,,,,,,,,,,,,,,,,,,,,,,16,15.13,12.55,12.62,12.62,0.118,0,0,0
2024-11-19T07:00:00Z,,,,,,,,,,,,,,,,,,,,,,,,,,,,,,,,,,,,,,,,,,,,,,,,,,,,,,,,,,,,,,,,,,,,,,,15,15.12,12.46,12.53,12.59,0.09,0,0,0
2024-11-19T06:00:00Z,,,,,,,,,,,,,,,,,,,,,,,,,,,,,,,,,,,,,,,,,,,,,,,,,,,,,,,,,,,,,,,,,,,,,,,14,15.15,12.46,12.54,1.573,0.098,0,0,0
2024-11-19T05:00:00Z,,,,,,,,,,,,,,,,,,,,,,,,,,,,,,,,,,,,,,,,,,,,,,,,,,,,,,,,,,,,,,,,,,,,,,,13,15.19,12.47,12.54,1.189,0.093,0,0,0
2024-11-19T04:00:00Z,,,,,,,,,,,,,,,,,,,,,,,,,,,,,,,,,,,,,,,,,,,,,,,,,,,,,,,,,,,,,,,,,,,,,,,12,15.28,12.46,12.52,1.67,0.107,0,0,0
2024-11-19T03:00:00Z,,,,,,,,,,,,,,,,,,,,,,,,,,,,,,,,,,,,,,,,,,,,,,,,,,,,,,,,,,,,,,,,,,,,,,,11,15.38,12.47,12.54,1.724,0.093,0,0,0
2024-11-19T02:00:00Z,,,,,,,,,,,,,,,,,,,,,,,,,,,,,,,,,,,,,,,,,,,,,,,,,,,,,,,,,,,,,,,,,,,,,,,10,15.48,12.47,12.54,1.405,0.088,0,0,0
2024-11-19T01:00:00Z,,,,,,,,,,,,,,,,,,,,,,,,,,,,,,,,,,,,,,,,,,,,,,,,,,,,,,,,,,,,,,,,,,,,,,,9,15.59,12.47,12.54,1.726,0.099,0,0,0
2024-11-19T00:00:00Z,,,,,,,,,,,,,,,,,,,,,,,,,,,,,,,,,,,,,,,,,,,,,,,,,,,,,,,,,,,,,,,,,,,,,,,8,15.75,12.47,12.54,1.722,0.086,0,0,0
2024-11-18T23:00:00Z,,,,,,,,,,,,,,,,,,,,,,,,,,,,,,,,,,,,,,,,,,,,,,,,,,,,,,,,,,,,,,,,,,,,,,,7,15.97,12.47,12.54,1.396,0.092,0,0,0
2024-11-18T22:00:00Z,,,,,,,,,,,,,,,,,,,,,,,,,,,,,,,,,,,,,,,,,,,,,,,,,,,,,,,,,,,,,,,,,,,,,,,6,16.22,12.47,12.54,1.309,0.093,0,0,0
2024-11-18T21:00:00Z,,,,,,,,,,,,,,,,,,,,,,,,,,,,,,,,,,,,,,,,,,,,,,,,,,,,,,,,,,,,,,,,,,,,,,,5,16.43,12.47,12.54,1.169,0.087,0,0,0
2024-11-18T20:00:00Z,,,,,,,,,,,,,,,,,,,,,,,,,,,,,,,,,,,,,,,,,,,,,,,,,,,,,,,,,,,,,,,,,,,,,,,4,16.68,12.47,12.54,1.449,0.093,0,0,0
2024-11-18T19:00:00Z,,,,,,,,,,,,,,,,,,,,,,,,,,,,,,,,,,,,,,,,,,,,,,,,,,,,,,,,,,,,,,,,,,,,,,,3,16.91,12.47,12.54,1.683,0.1,0,0,0
2024-11-18T18:00:00Z,,,,,,,,,,,,,,,,,,,,,,,,,,,,,,,,,,,,,,,,,,,,,,,,,,,,,,,,,,,,,,,,,,,,,,,2,16.99,12.47,12.54,1.258,0.096,0,0,0
2024-11-18T17:00:00Z,,,,,,,,,,,,,,,,,,,,,,,,,,,,,,,,,,,,,,,,,,,,,,,,,,,,,,,,,,,,,,,,,,,,,,,1,17.05,12.47,12.54,1.477,0.093,0,0,0
2024-11-18T16:00:00Z,,,,,,,,,,,,,,,,,,,,,,,,,,,,,,,,,,,,,,,,,,,,,,,,,,,,,,,,,,,,,,,,,,,,,,,0,17.18,12.46,12.53,12.54,0.112,0,0,0
2024-11-18T11:00:00Z,,,,,,,,,,,,,,,,,,,,,,,,,,,,,,,,,,,,,,,,,,,,,,,,,,,,,,,,,,,,,,,,,,,,,,,61,15.29,12.5,12.57,12.58,0.091,0,0,0
2024-11-18T10:00:00Z,,,,,,,,,,,,,,,,,,,,,,,,,,,,,,,,,,,,,,,,,,,,,,,,,,,,,,,,,,,,,,,,,,,,,,,60,14.91,12.51,12.57,12.59,0.086,0,0,0
2024-11-18T09:00:00Z,,,,,,,,,,,,,,,,,,,,,,,,,,,,,,,,,,,,,,,,,,,,,,,,,,,,,,,,,,,,,,,,,,,,,,,59,14.54,12.6,12.67,12.69,0.1,0,0,0
2024-11-18T08:00:00Z,,,,,,,,,,,,,,,,,,,,,,,,,,,,,,,,,,,,,,,,,,,,,,,,,,,,,,,,,,,,,,,,,,,,,,,58,14.46,12.48,12.55,12.56,0.091,0,0,0
2024-11-18T07:00:00Z,,,,,,,,,,,,,,,,,,,,,,,,,,,,,,,,,,,,,,,,,,,,,,,,,,,,,,,,,,,,,,,,,,,,,,,57,14.59,12.48,12.55,12.53,0.087,0,0,0
2024-11-18T06:00:00Z,,,,,,,,,,,,,,,,,,,,,,,,,,,,,,,,,,,,,,,,,,,,,,,,,,,,,,,,,,,,,,,,,,,,,,,56,14.81,12.48,12.55,1.174,0.092,0,0,0
2024-11-18T05:00:00Z,,,,,,,,,,,,,,,,,,,,,,,,,,,,,,,,,,,,,,,,,,,,,,,,,,,,,,,,,,,,,,,,,,,,,,,55,14.98,12.48,12.55,1.189,0.089,0,0,0
2024-11-18T04:00:00Z,,,,,,,,,,,,,,,,,,,,,,,,,,,,,,,,,,,,,,,,,,,,,,,,,,,,,,,,,,,,,,,,,,,,,,,54,15.2,12.48,12.55,1.463,0.089,0,0,0
2024-11-18T03:00:00Z,,,,,,,,,,,,,,,,,,,,,,,,,,,,,,,,,,,,,,,,,,,,,,,,,,,,,,,,,,,,,,,,,,,,,,,53,15.46,12.48,12.54,1.35,0.107,0,0,0
2024-11-18T02:00:00Z,,,,,,,,,,,,,,,,,,,,,,,,,,,,,,,,,,,,,,,,,,,,,,,,,,,,,,,,,,,,,,,,,,,,,,,52,15.74,12.48,12.55,1.201,0.096,0,0,0
2024-11-18T01:00:00Z,,,,,,,,,,,,,,,,,,,,,,,,,,,,,,,,,,,,,,,,,,,,,,,,,,,,,,,,,,,,,,,,,,,,,,,51,16.02,12.48,12.56,1.785,0.092,0,0,0
2024-11-18T00:00:00Z,,,,,,,,,,,,,,,,,,,,,,,,,,,,,,,,,,,,,,,,,,,,,,,,,,,,,,,,,,,,,,,,,,,,,,,50,16.25,12.48,12.56,1.212,0.093,0,0,0
2024-11-17T23:00:00Z,,,,,,,,,,,,,,,,,,,,,,,,,,,,,,,,,,,,,,,,,,,,,,,,,,,,,,,,,,,,,,,,,,,,,,,49,16.53,12.49,12.56,1.321,0.1,0,0,0
2024-11-17T22:00:00Z,,,,,,,,,,,,,,,,,,,,,,,,,,,,,,,,,,,,,,,,,,,,,,,,,,,,,,,,,,,,,,,,,,,,,,,48,16.85,12.48,12.55,1.714,0.118,0,0,0
2024-11-17T21:00:00Z,,,,,,,,,,,,,,,,,,,,,,,,,,,,,,,,,,,,,,,,,,,,,,,,,,,,,,,,,,,,,,,,,,,,,,,47,17.14,12.48,12.55,1.33,0.122,0,0,0
2024-11-17T20:00:00Z,,,,,,,,,,,,,,,,,,,,,,,,,,,,,,,,,,,,,,,,,,,,,,,,,,,,,,,,,,,,,,,,,,,,,,,46,17.4,12.48,12.54,1.146,0.119,0,0,0
2024-11-17T19:00:00Z,,,,,,,,,,,,,,,,,,,,,,,,,,,,,,,,,,,,,,,,,,,,,,,,,,,,,,,,,,,,,,,,,,,,,,,45,17.63,12.48,12.55,1.209,0.118,0,0,0
2024-11-17T18:00:00Z,,,,,,,,,,,,,,,,,,,,,,,,,,,,,,,,,,,,,,,,,,,,,,,,,,,,,,,,,,,,,,,,,,,,,,,44,17.86,12.48,12.55,1.673,0.118,0,0,0
2024-11-17T17:00:00Z,,,,,,,,,,,,,,,,,,,,,,,,,,,,,,,,,,,,,,,,,,,,,,,,,,,,,,,,,,,,,,,,,,,,,,,43,18.05,12.49,12.55,1.725,0.115,0,0,0
2024-11-17T16:00:00Z,,,,,,,,,,,,,,,,,,,,,,,,,,,,,,,,,,,,,,,,,,,,,,,,,,,,,,,,,,,,,,,,,,,,,,,42,18.09,12.49,12.55,12.55,0.124,0,0,0
2024-11-17T15:00:00Z,,,,,,,,,,,,,,,,,,,,,,,,,,,,,,,,,,,,,,,,,,,,,,,,,,,,,,,,,,,,,,,,,,,,,,,41,17.97,12.5,12.57,12.57,0.12,0,0,0
2024-11-17T14:00:00Z,,,,,,,,,,,,,,,,,,,,,,,,,,,,,,,,,,,,,,,,,,,,,,,,,,,,,,,,,,,,,,,,,,,,,,,40,17.71,12.52,12.58,12.59,0.115,0,0,0
2024-11-17T13:00:00Z,,,,,,,,,,,,,,,,,,,,,,,,,,,,,,,,,,,,,,,,,,,,,,,,,,,,,,,,,,,,,,,,,,,,,,,39,17.43,12.53,12.6,12.6,0.118,0,0,0
2024-11-17T12:00:00Z,,,,,,,,,,,,,,,,,,,,,,,,,,,,,,,,,,,,,,,,,,,,,,,,,,,,,,,,,,,,,,,,,,,,,,,38,17.22,12.55,12.61,12.61,0.116,0,0,0
2024-11-17T11:00:00Z,,,,,,,,,,,,,,,,,,,,,,,,,,,,,,,,,,,,,,,,,,,,,,,,,,,,,,,,,,,,,,,,,,,,,,,37,17.03,12.58,12.64,12.64,0.12,0,0,0
2024-11-17T10:00:00Z,,,,,,,,,,,,,,,,,,,,,,,,,,,,,,,,,,,,,,,,,,,,,,,,,,,,,,,,,,,,,,,,,,,,,,,36,16.69,12.63,12.7,12.71,0.1,0,0,0
2024-11-17T09:00:00Z,,,,,,,,,,,,,,,,,,,,,,,,,,,,,,,,,,,,,,,,,,,,,,,,,,,,,,,,,,,,,,,,,,,,,,,35,15.73,12.7,12.78,12.78,0.089,0,0,0
2024-11-17T08:00:00Z,,,,,,,,,,,,,,,,,,,,,,,,,,,,,,,,,,,,,,,,,,,,,,,,,,,,,,,,,,,,,,,,,,,,,,,34,15.38,12.57,12.65,12.66,0.087,0,0,0
2024-11-17T07:00:00Z,,,,,,,,,,,,,,,,,,,,,,,,,,,,,,,,,,,,,,,,,,,,,,,,,,,,,,,,,,,,,,,,,,,,,,,33,15.38,12.49,12.56,12.55,0.106,0,0,0
2024-11-17T06:00:00Z,,,,,,,,,,,,,,,,,,,,,,,,,,,,,,,,,,,,,,,,,,,,,,,,,,,,,,,,,,,,,,,,,,,,,,,32,15.48,12.49,12.56,1.717,0.086,0,0,0
2024-11-17T05:00:00Z,,,,,,,,,,,,,,,,,,,,,,,,,,,,,,,,,,,,,,,,,,,,,,,,,,,,,,,,,,,,,,,,,,,,,,,31,15.66,12.49,12.57,1.615,0.085,0,0,0
2024-11-17T04:00:00Z,,,,,,,,,,,,,,,,,,,,,,,,,,,,,,,,,,,,,,,,,,,,,,,,,,,,,,,,,,,,,,,,,,,,,,,30,15.88,12.49,12.57,1.436,0.091,0,0,0
2024-11-17T03:00:00Z,,,,,,,,,,,,,,,,,,,,,,,,,,,,,,,,,,,,,,,,,,,,,,,,,,,,,,,,,,,,,,,,,,,,,,,29,16.09,12.49,12.57,1.749,0.088,0,0,0
2024-11-17T02:00:00Z,,,,,,,,,,,,,,,,,,,,,,,,,,,,,,,,,,,,,,,,,,,,,,,,,,,,,,,,,,,,,,,,,,,,,,,28,16.29,12.5,12.57,1.724,0.091,0,0,0
2024-11-17T01:00:00Z,,,,,,,,,,,,,,,,,,,,,,,,,,,,,,,,,,,,,,,,,,,,,,,,,,,,,,,,,,,,,,,,,,,,,,,27,16.52,12.5,12.57,1.262,0.089,0,0,0
2024-11-17T00:00:00Z,,,,,,,,,,,,,,,,,,,,,,,,,,,,,,,,,,,,,,,,,,,,,,,,,,,,,,,,,,,,,,,,,,,,,,,26,16.77,12.5,12.58,1.732,0.086,0,0,0
2024-11-16T23:00:00Z,,,,,,,,,,,,,,,,,,,,,,,,,,,,,,,,,,,,,,,,,,,,,,,,,,,,,,,,,,,,,,,,,,,,,,,25,17.02,12.51,12.57,1.307,0.09,0,0,0
2024-11-16T22:00:00Z,,,,,,,,,,,,,,,,,,,,,,,,,,,,,,,,,,,,,,,,,,,,,,,,,,,,,,,,,,,,,,,,,,,,,,,24,17.26,12.51,12.58,1.667,0.089,0,0,0
2024-11-16T21:00:00Z,,,,,,,,,,,,,,,,,,,,,,,,,,,,,,,,,,,,,,,,,,,,,,,,,,,,,,,,,,,,,,,,,,,,,,,23,17.46,12.51,12.58,1.192,0.092,0,0,0
2024-11-16T20:00:00Z,,,,,,,,,,,,,,,,,,,,,,,,,,,,,,,,,,,,,,,,,,,,,,,,,,,,,,,,,,,,,,,,,,,,,,,22,17.64,12.52,12.59,1.543,0.086,0,0,0
2024-11-16T19:00:00Z,,,,,,,,,,,,,,,,,,,,,,,,,,,,,,,,,,,,,,,,,,,,,,,,,,,,,,,,,,,,,,,,,,,,,,,21,17.82,12.53,12.6,1.66,0.097,0,0,0
2024-11-16T18:00:00Z,,,,,,,,,,,,,,,,,,,,,,,,,,,,,,,,,,,,,,,,,,,,,,,,,,,,,,,,,,,,,,,,,,,,,,,20,18.03,12.54,12.61,1.707,0.082,0,0,0
2024-11-16T17:00:00Z,,,,,,,,,,,,,,,,,,,,,,,,,,,,,,,,,,,,,,,,,,,,,,,,,,,,,,,,,,,,,,,,,,,,,,,19,18.2,12.55,12.62,1.25,0.09,0,0,0
2024-11-16T16:00:00Z,,,,,,,,,,,,,,,,,,,,,,,,,,,,,,,,,,,,,,,,,,,,,,,,,,,,,,,,,,,,,,,,,,,,,,,18,18.29,12.56,12.64,12.64,0.1,0,0,0
2024-11-16T15:00:00Z,,,,,,,,,,,,,,,,,,,,,,,,,,,,,,,,,,,,,,,,,,,,,,,,,,,,,,,,,,,,,,,,,,,,,,,17,18.33,12.58,12.65,12.66,0.092,0,0,0
2024-11-16T14:00:00Z,,,,,,,,,,,,,,,,,,,,,,,,,,,,,,,,,,,,,,,,,,,,,,,,,,,,,,,,,,,,,,,,,,,,,,,16,18.27,12.58,12.65,12.64,0.122,0,0,0
2024-11-15T23:00:00Z,,,,,,,,,,,,,,,,,,,,,,,,,,,,,,,,,,,,,,,,,,,,,,,,,,,,,,,,,,,,,,,,,,,,,,,15,16.85,12.5,12.57,1.168,0.114,0,0,0
2024-11-15T22:00:00Z,,,,,,,,,,,,,,,,,,,,,,,,,,,,,,,,,,,,,,,,,,,,,,,,,,,,,,,,,,,,,,,,,,,,,,,14,17.01,12.5,12.57,1.432,0.118,0,0,0
2024-11-15T21:00:00Z,,,,,,,,,,,,,,,,,,,,,,,,,,,,,,,,,,,,,,,,,,,,,,,,,,,,,,,,,,,,,,,,,,,,,,,13,17.19,12.5,12.57,1.382,0.099,0,0,0
2024-11-15T20:00:00Z,,,,,,,,,,,,,,,,,,,,,,,,,,,,,,,,,,,,,,,,,,,,,,,,,,,,,,,,,,,,,,,,,,,,,,,12,17.36,12.51,12.58,1.669,0.091,0,0,0
2024-11-15T19:00:00Z,,,,,,,,,,,,,,,,,,,,,,,,,,,,,,,,,,,,,,,,,,,,,,,,,,,,,,,,,,,,,,,,,,,,,,,11,17.57,12.51,12.58,1.207,0.085,0,0,0
2024-11-15T18:00:00Z,,,,,,,,,,,,,,,,,,,,,,,,,,,,,,,,,,,,,,,,,,,,,,,,,,,,,,,,,,,,,,,,,,,,,,,10,17.77,12.51,12.58,1.745,0.091,0,0,0
2024-11-15T17:00:00Z,,,,,,,,,,,,,,,,,,,,,,,,,,,,,,,,,,,,,,,,,,,,,,,,,,,,,,,,,,,,,,,,,,,,,,,9,17.99,12.51,12.58,1.89,0.092,0,0,0
2024-11-15T16:00:00Z,,,,,,,,,,,,,,,,,,,,,,,,,,,,,,,,,,,,,,,,,,,,,,,,,,,,,,,,,,,,,,,,,,,,,,,8,18.22,12.52,12.59,12.6,0.097,0,0,0
2024-11-15T15:00:00Z,,,,,,,,,,,,,,,,,,,,,,,,,,,,,,,,,,,,,,,,,,,,,,,,,,,,,,,,,,,,,,,,,,,,,,,7,18.48,12.52,12.6,12.6,0.095,0,0,0
2024-11-15T14:00:00Z,,,,,,,,,,,,,,,,,,,,,,,,,,,,,,,,,,,,,,,,,,,,,,,,,,,,,,,,,,,,,,,,,,,,,,,6,18.77,12.52,12.59,12.6,0.107,0,0,0
2024-11-15T13:00:00Z,,,,,,,,,,,,,,,,,,,,,,,,,,,,,,,,,,,,,,,,,,,,,,,,,,,,,,,,,,,,,,,,,,,,,,,5,19.08,12.54,12.6,12.61,0.103,0,0,0
2024-11-15T12:00:00Z,,,,,,,,,,,,,,,,,,,,,,,,,,,,,,,,,,,,,,,,,,,,,,,,,,,,,,,,,,,,,,,,,,,,,,,4,19.39,12.57,12.64,12.65,0.096,0,0,0
2024-11-15T11:00:00Z,,,,,,,,,,,,,,,,,,,,,,,,,,,,,,,,,,,,,,,,,,,,,,,,,,,,,,,,,,,,,,,,,,,,,,,3,19.85,12.56,12.63,12.64,0.098,0,0,0
2024-11-15T10:00:00Z,,,,,,,,,,,,,,,,,,,,,,,,,,,,,,,,,,,,,,,,,,,,,,,,,,,,,,,,,,,,,,,,,,,,,,,2,20.7,12.54,12.6,12.61,0.105,0,0,0
2024-11-14T13:00:00Z,,,,,,,,,,,,,,,,,,,,,,,,,,,,,,,,,,,,,,,,,,,,,,,,,,,,,,,,,,,,,,,,,,,,,,,1,23,12.53,12.59,3.579,0.118,0,0,0
2024-11-12T15:00:00Z,,,,,,,,,,,,,,,0,37-26087,23.0054,5.49506,0.079,NAN,,,,,,,,,,,,,,,,,,,,,,,,,,,,,,,,,,,,,,,,,,,,,,,,0,:5:70A :17AE70AE3591E8217D61A2C12B2234A136E1A1B12B0233E13701A3112AD234213731A2512A9233B13651A3012AE234013721A2810E9233B13531A290724233A12C31A2301E2233911951A290109233811041A220182233D10F01A2602B5233811B71A20044F233C12291A26062E233212601A21080E233812A41A2B0A0E233812D41A200B6F232B13061A2C0CAC234013301A200DDE232813381A1F0EDC2334133F1A210FB1233413411A24105E233913501A2B10CF233D13511A2510D8232E12DF1A2A1195233C13581A2A11D9233E135B1A2812052337135C1A1C1239233813603E003EB517D241  ,:5:70A :17AE70AE3591E8217D61A2C12B2234A136E1A1B12B0233E13701A3112AD234213731A2512A9233B13651A3012AE234013721A2810E9233B13531A290724233A12C31A2301E2233911951A290109233811041A220182233D10F01A2602B5233811B71A20044F233C12291A26062E233212601A21080E233812A41A2B0A0E233812D41A200B6F232B13061A2C0CAC234013301A200DDE232813381A1F0EDC2334133F1A210FB1233413411A24105E233913501A2B10CF233D13511A2510D8232E12DF1A2A1195233C13581A2A11D9233E135B1A2812052337135C1A1C1239233813603E003EB517D241  ,0,25.13,12.57,12.63,0.009,0.113,0,0,0
