TIMESTAMP,Meteo_Latitude,Meteo_Longitude,Meteo_HASL,Meteo_Rel_WindDir,Meteo_Corr_WindDir,Meteo_Corr_WindS,Meteo_WindDir_True,Meteo_Rel_WS,Meteo_BP,Meteo_RH,Meteo_AirTemp,Meteo_DP,Meteo_AD,Meteo_WBT,SBE37_SBE37Sn,SBE37_SBE37Temp,SBE37_SBE37Cond,SBE37_SBE37Pres,SBE37_SBE37OXY,SBE37_SBE37Sal,Doppler_DoppVolts,Doppler_DoppSoundSpeed,Doppler_DoppHeading,Doppler_DoppPitch,Doppler_DoppRoll,Doppler_DoppPress,Doppler_DoppTemp,Doppler_DoppCell(1),Doppler_DoppCell(2),Doppler_DoppCell(3),Doppler_DoppCell(4),Doppler_DoppCell(5),Doppler_DoppCell(6),Doppler_DoppCell(7),Doppler_DoppCell(8),Doppler_DoppCell(9),Doppler_DoppCell(10),Doppler_DoppCell(11),Doppler_DoppCell(12),Doppler_DoppCell(13),Doppler_DoppCell(14),Doppler_DoppCell(15),Doppler_DoppCell(16),Doppler_DoppCell(17),Doppler_DoppCell(18),Doppler_DoppCell(19),Doppler_DoppCell(20),Doppler_DoppCell(21),Doppler_DoppCell(22),Doppler_DoppCell(23),Doppler_DoppCell(24),Doppler_DoppCell(25),Doppler_DoppCell(26),Doppler_DoppCell(27),Doppler_DoppCell(28),Doppler_DoppCell(29),Doppler_DoppCell(30),Doppler_DoppCell(31),Doppler_DoppCell(32),Doppler_DoppCell(33),Doppler_DoppCell(34),Doppler_DoppCell(35),Doppler_DoppCell(36),Doppler_DoppCell(37),Doppler_DoppCell(38),Doppler_DoppCell(39),Doppler_DoppCell(40),Sami_SamiData,Sami_SamiMessage,Sami_SamiNBlank,System_PanelTemp,System_Datalogg_Pwr,System_Batt_Volt,System_Solar_Voltage,System_Current,System_CTD_PwrOff,System_ADP_PwrOff,System_SAMI_PwrOff,System_Meteo_PwrOff
2024-11-28T14:00:00Z,41.3852,2.195986,42,225,347,0.07,349,0.07,1022.8,51,18.3,8,1.2,12.4,37-26087,16.8527,4E-05,0.015,NAN,0.0086,12.1,1515,263.8,160.8,-160.4,0.267,16.5,1535 27,1726 355,2013 45,1900 34,662 38,1319 53,1477 38,1526 49,614 103,1843 19,1542 358,1645 45,1668 38,1753 336,1307 26,1019 70,1250 38,1127 306,956 342,1682 13,1072 43,820 348,1111 353,1574 19,967 24,990 74,982 76,735 74,1503 70,1067 57,1460 31,1577 26,1810 343,853 41,973 350,2069 36,2011 20,1839 8,1071 344,1746 11,:5:70A :17AE70AE36E28511AFB1A92137C238614AA1A88137A237A14A31A7A1382237214A91A84137C2371149C1A841383237814A31A7510AA236B14861A8C06C8237214831A8201C0236D139C1A820109237112B51A7E0169236B12C71A8A0268236C133A1A7B03F1236C13C11A8005DC236C14111A800802236414471A8C0A0D237214661A8D0BD02371147D1A820D69237014831A870EC22363148C1A8A0FC9236914911A911096236F14951A891147236E14931A8A11CA2369149B1A841231235E14951A7F1282235E149C1A8612BB236C149D1A8A12EE236B149C1A8D13082366149A3D6E3E2B1B19AE  ,:5:70A :17AE70AE36E28511AFB1A92137C238614AA1A88137A237A14A31A7A1382237214A91A84137C2371149C1A841383237814A31A7510AA236B14861A8C06C8237214831A8201C0236D139C1A820109237112B51A7E0169236B12C71A8A0268236C133A1A7B03F1236C13C11A8005DC236C14111A800802236414471A8C0A0D237214661A8D0BD02371147D1A820D69237014831A870EC22363148C1A8A0FC9236914911A911096236F14951A891147236E14931A8A11CA2369149B1A841231235E14951A7F1282235E149C1A8612BB236C149D1A8A12EE236B149C1A8D13082366149A3D6E3E2B1B19AE  ,1,,,,,,,,,
2024-11-28T13:00:00Z,41.3852,2.195685,22,243,5,0.17,6.95,0.17,1023.5,49,17.9,7.1,1.2,11.8,37-26087,16.3933,4E-05,0.021,NAN,0.0084,12.1,1514,250,160.1,-160.1,0.271,16.17,1156 49,1652 324,1698 353,1294 5,1425 49,1395 15,1476 7,858 42,1360 353,1462 17,1075 10,1493 27,479 31,1441 349,977 3,1474 9,1006 320,1635 22,1893 39,1269 350,826 28,1028 24,1611 343,1131 30,1401 50,947 38,1189 17,2040 48,1724 334,2091 3,1837 17,986,1342 25,1482 354,937 343,980 36,2082 33,730 331,1261 342,1306 49,,,1,,,,,,,,,
2024-11-27T18:00:00Z,41.38524,2.195696,29,20,121,0.25,123,0.25,1023.4,53,16.6,7.2,1.2,11.2,37-26087,NAN,NAN,NAN,NAN,NAN,NAN,NAN,NAN,NAN,NAN,NAN,NAN,,,,,,,,,,,,,,,,,,,,,,,,,,,,,,,,,,,,,,,,,,,1,,,,,,,,,
2024-11-27T17:00:00Z,41.38496,2.196176,76,7,108,0.17,110,0.17,1023,51,17.2,7.1,1.2,11.5,37-26087,NAN,NAN,NAN,NAN,NAN,NAN,NAN,NAN,NAN,NAN,NAN,NAN,,,,,,,,,,,,,,,,,,,,,,,,,,,,,,,,,,,,,,,,,,,1,,,,,,,,,
2024-11-27T16:00:00Z,41.38514,2.195823,92,63,165,0.27,167,0.27,1022.5,49,17.7,6.9,1.2,11.6,37-26087,NAN,NAN,NAN,NAN,NAN,NAN,NAN,NAN,NAN,NAN,NAN,NAN,,,,,,,,,,,,,,,,,,,,,,,,,,,,,,,,,,,,,,,,,,,1,,,,,,,,,
2024-11-21T22:00:00Z,41.38533,2.195418,45,99,127,0.97,129,0.97,1001.7,48,19.1,7.9,1.2,12.7,37-26087,18.3508,3E-05,-0.196,NAN,0.0093,12.1,1521,170.1,161,-160.5,0.068,18.49,1394 309,1216 294,365 265,905 265,1404 318,1533 253,1304 277,1228 301,607 271,1217 284,1259 294,407 285,1001 256,1501 279,1795 261,1682 318,1341 263,1990 302,817 301,864 290,965 299,1747 297,1127 333,968 271,1224 230,1377 293,961 254,1202 271,1205 240,1413 324,685 347,851 311,1558 310,897 291,1109 277,680 333,1790 284,1247 271,1232 258,1077 272,:5:70A :17AE70AE3655E531B651AB41377238214921AAF136F237114901AA8136B2367147F1AB4136C2372148D1AB013722370148B1AB00FCD237014721AA407F2236E140E1ABC017A237B128D1AB500EA237011AE1AAC014B236C12321AAC0278236913021ABA0442237513991AB50689237013ED1AAA08CF236F142E1AB50ADE236B144B1AB60CA3236C14701AA40DF9236A14711AB80F1C236E147F1AB01005236B147D1AA810B6236D147D1AB311572370148C1AAE11CF236A14871AB6122D236B14871AAC1279236C14861AB112AC237C14891AA712D8235E14811AB612F92374148B3D433DF91B6CC9  ,:5:70A :17AE70AE3655E531B651AB41377238214921AAF136F237114901AA8136B2367147F1AB4136C2372148D1AB013722370148B1AB00FCD237014721AA407F2236E140E1ABC017A237B128D1AB500EA237011AE1AAC014B236C12321AAC0278236913021ABA0442237513991AB50689237013ED1AAA08CF236F142E1AB50ADE236B144B1AB60CA3236C14701AA40DF9236A14711AB80F1C236E147F1AB01005236B147D1AA810B6236D147D1AB311572370148C1AAE11CF236A14871AB6122D236B14871AAC1279236C14861AB112AC237C14891AA712D8235E14811AB612F92374148B3D433DF91B6CC9  ,3,,,,,,,,,
2024-11-21T21:00:00Z,41.38539,2.195715,47,95,123,0.93,125,0.93,1001.7,47,19.1,7.7,1.2,12.6,37-26087,18.3148,3E-05,-0.195,NAN,0.0093,12.1,1521,171.7,160.9,-160.5,0.069,18.55,826 256,999 295,1072 291,1608 279,940 280,902 277,1657 270,2018 300,1727 298,1109 288,2020 298,1123 274,940 304,781 311,551 322,1523 272,676 240,1606 274,1568 291,1591 314,1608 295,1681 308,1428 291,782 300,1139 277,1139 281,1255 324,1509 321,622 290,960 324,732 297,1167 245,1107 333,2284 252,670 272,1069 267,653 296,570 269,851 317,271 197,:5:70A :17AE70AE36550431B621AB61360237F14811AB313652374147B1AA813682371147C1AAD1361237914751AA41365236C14781AB30FCE237014591AA207A1236713FA1AAA0177236A127C1AB100F1236F11A41AA301512371122D1AB5026E237112E81AAC043D235E13701AAB0686236E13DD1AAE08E6237414191AAF0AC5236B143A1AB60C80236E14541AAB0E01237514631AB30F262368146B1A9E1010236414781AAB10B6237014731AB01153236E14781AA511B82367146C1AB01218237514751AAD126C2373147C1AA6129A235A14701AA712C3236014691AB612EC237614733D423DF91B6A15  ,:5:70A :17AE70AE36550431B621AB61360237F14811AB313652374147B1AA813682371147C1AAD1361237914751AA41365236C14781AB30FCE237014591AA207A1236713FA1AAA0177236A127C1AB100F1236F11A41AA301512371122D1AB5026E237112E81AAC043D235E13701AAB0686236E13DD1AAE08E6237414191AAF0AC5236B143A1AB60C80236E14541AAB0E01237514631AB30F262368146B1A9E1010236414781AAB10B6237014731AB01153236E14781AA511B82367146C1AB01218237514751AAD126C2373147C1AA6129A235A14701AA712C3236014691AB612EC237614733D423DF91B6A15  ,3,,,,,,,,,
2024-11-21T20:00:00Z,41.38537,2.195681,31,102,130,1.08,132,1.08,1002.1,47,19.3,7.8,1.2,12.7,37-26087,18.4281,4E-05,-0.192,NAN,0.0093,12.1,1521,170.7,161,-160.4,0.075,18.71,399 257,1519 285,1322 261,1606 264,1175 331,1130 324,1684 314,1513 335,524 301,1196 313,754 311,587 332,1057 322,1594 319,1113 257,1254 292,1108 282,917 330,767 263,727 286,804 358,720 306,1430 324,1078 8,741 291,1189 325,803 264,1356 323,1212 299,1577 249,338 5,1245 280,1696 293,786 322,603 307,1502 310,955 309,1309 292,1233 303,2436 270,:5:70A :17AE70AE36542331B4D1AAF135C2371146D1AB6134F237D14671AA91349236E14621AAB13552366146A1AAE1352237D14681AB310FA237414501AA40866236B13E91AA701DE236D12961AAF00EA237011711AAF011F236D11961AB002382374129A1AA90412236413581AA9063F236B13BB1AA60882236214011AB10A91236D14271AAA06DD236512541AA70F10237114571AAF0FC4236B145A1AB8106C236D145E1AA411062366145C1AAB11882366145E1AA111E8235A145F1AA31233236A145D1AA31273236B145D1AA612A6236B145D1AA512C92369145E1AAE12EB237214633D443DF91B5090  ,:5:70A :17AE70AE36542331B4D1AAF135C2371146D1AB6134F237D14671AA91349236E14621AAB13552366146A1AAE1352237D14681AB310FA237414501AA40866236B13E91AA701DE236D12961AAF00EA237011711AAF011F236D11961AB002382374129A1AA90412236413581AA9063F236B13BB1AA60882236214011AB10A91236D14271AAA06DD236512541AA70F10237114571AAF0FC4236B145A1AB8106C236D145E1AA411062366145C1AAB11882366145E1AA111E8235A145F1AA31233236A145D1AA31273236B145D1AA612A6236B145D1AA512C92369145E1AAE12EB237214633D443DF91B5090  ,3,,,,,,,,,
2024-11-21T19:00:00Z,41.38522,2.19572,11,259,287,0.56,289,0.56,1002.2,46,19.6,7.7,1.2,12.8,37-26087,18.5024,4E-05,-0.19,NAN,0.0093,12.1,1521,171.2,161.1,-160.5,0.076,18.76,595 298,2037 254,1852 303,1560 268,1584 249,336 289,1637 286,1055 302,1245 286,613 355,558 279,1065 274,1485 284,901 282,1116 296,1273 295,1478 275,939 274,1508 312,1112 286,1465 264,885 291,1326 290,1461 308,1197 249,1075 258,2062 252,1028 298,2062 276,1333 244,1163 305,1557 305,1707 290,1391 340,1050 282,955 261,1442 256,1398 260,1144 302,274 354,:5:70A :17AE70AE36534231B371AB11348237814551AA31345237214521AAF1343236514491AA81340237714531AA513412367144D1AA810F9236C14371AA208E3236C13E41AA501CA237112811AAA00DC2370114E1AAF01202375119B1AA602282368127A1AB003D4237313311AB406092373139C1AAA0844237313E11AB50A6C236D140E1AA20C192359141F1AAC0D9F237514321AA50EF1236B14491AA30FE3236B14481AA610B3236A144C1AAD113D237214471AA811B2236A14451AAD12162370144B1AAA1258236614461AA5128C236A14411AB112BF236A144E1A9A12D9236B144B3D453DF91B37FA  ,:5:70A :17AE70AE36534231B371AB11348237814551AA31345237214521AAF1343236514491AA81340237714531AA513412367144D1AA810F9236C14371AA208E3236C13E41AA501CA237112811AAA00DC2370114E1AAF01202375119B1AA602282368127A1AB003D4237313311AB406092373139C1AAA0844237313E11AB50A6C236D140E1AA20C192359141F1AAC0D9F237514321AA50EF1236B14491AA30FE3236B14481AA610B3236A144C1AAD113D237214471AA811B2236A14451AAD12162370144B1AAA1258236614461AA5128C236A14411AB112BF236A144E1A9A12D9236B144B3D453DF91B37FA  ,3,,,,,,,,,
2024-11-21T18:00:00Z,41.38524,2.195603,8,102,130,0.71,132,0.71,1002.6,45,19.7,7.7,1.2,12.9,37-26087,18.4761,3E-05,-0.187,NAN,0.0093,12.1,1521,171.2,161.1,-160.5,0.08,18.76,751 229,753 269,1767 313,916 243,1219 297,1824 300,1059 259,1549 263,637 253,782 299,1151 290,1262 273,1053 279,1544 278,1830 291,779 278,1623 238,673 310,1762 312,954 254,1312 295,652 292,1594 311,644 305,1080 259,1444 336,1029 306,861 281,906 278,1637 272,1232 292,1338 287,744 292,1336 286,1302 222,1509 353,693 298,1842 304,1125 269,1324 287,:5:70A :17AE70AE36526131B331AA8133A236B14401AAA133B237814461AAC13332373143F1AA51338236E143E1AA6133C237014431AB3108A236D142A1AA60834236813C61AA30196236B12631AA300DE236B11591AA70142236611CE1AA60259236812971AA104032368133B1AA60632236A13A31AA40876236313DD1AA60A4E236E13F91AA40C4A236514191AA00DC5236714291AAA0EF7236A14331AA50FE3236A14311A9F109B2362143D1AAA11312366143A1AAC119F236D14391AA811FD236E142D1AB41243237314341AA11275235A142C1AB112A9237214361AA812CC236314353D443DF71B3026  ,:5:70A :17AE70AE36526131B331AA8133A236B14401AAA133B237814461AAC13332373143F1AA51338236E143E1AA6133C237014431AB3108A236D142A1AA60834236813C61AA30196236B12631AA300DE236B11591AA70142236611CE1AA60259236812971AA104032368133B1AA60632236A13A31AA40876236313DD1AA60A4E236E13F91AA40C4A236514191AA00DC5236714291AAA0EF7236A14331AA50FE3236A14311A9F109B2362143D1AAA11312366143A1AAC119F236D14391AA811FD236E142D1AB41243237314341AA11275235A142C1AB112A9237214361AA812CC236314353D443DF71B3026  ,3,,,,,,,,,
2024-11-21T17:00:00Z,41.38534,2.195655,17,137,165,0.64,167,0.64,1002.7,47,19.7,8,1.2,13,37-26087,18.5003,3E-05,-0.187,NAN,0.0093,12.1,1521,170.2,161,-160.4,0.081,18.8,926 267,882 314,890 295,1810 285,1491 310,1039 289,1731 275,1246 288,1243 307,1128 260,1038 299,663 239,1043 250,1344 284,1591 270,1292 331,1628 325,1120 300,1303 278,1833 275,1267 339,1235 287,1537 279,1219 292,1394 271,808 297,1695 270,1474 258,921 346,781 281,1153 288,1109 299,1375 293,1322 230,808 246,446 299,1171 256,1747 283,1051 284,1138 293,:5:70A :17AE70AE36518041B2E1AA713262376142E1AA3131F236914231AA11323236814291AA41320236814241A9D132C236814311A9F0F19236113FA1A9F076E237113AC1AA001712363123D1AAD00F82378118B1A930146235E11E71AA30271236612A41AA7045F236813401AA706A8236813A21AAD08E9236A13DB1AA20AC9236A13F71AA10C772372140C1AA30DC7236014141A9B0EE3236114231AB00FBE2371142A1AA0106D235F14221AA21103236814241AA7116B236514241AA911CC235C141D1AA212182361141A1AA2125D236614201AA512812364141D1A9F12A6236414223D473DFA1B31AF  ,:5:70A :17AE70AE36518041B2E1AA713262376142E1AA3131F236914231AA11323236814291AA41320236814241A9D132C236814311A9F0F19236113FA1A9F076E237113AC1AA001712363123D1AAD00F82378118B1A930146235E11E71AA30271236612A41AA7045F236813401AA706A8236813A21AAD08E9236A13DB1AA20AC9236A13F71AA10C772372140C1AA30DC7236014141A9B0EE3236114231AB00FBE2371142A1AA0106D235F14221AA21103236814241AA7116B236514241AA911CC235C141D1AA212182361141A1AA2125D236614201AA512812364141D1A9F12A6236414223D473DFA1B31AF  ,3,,,,,,,,,
2024-11-21T16:00:00Z,41.3852,2.195716,38,289,318,0.41,320,0.41,1003.1,47,19.8,8.2,1.2,13.1,37-26087,18.4306,3E-05,-0.182,NAN,0.0093,12.1,1522,170.2,161,-160.4,0.085,18.88,1126 298,480 300,1673 290,809 225,2272 278,1079 307,598 307,1637 269,1208 314,1645 296,1301 269,1246 246,596 280,408 289,1178 269,936 271,850 241,1874 280,854 289,1461 306,1296 269,1234 302,1551 282,876 277,666 262,1822 276,1617 286,930 308,1106 294,1079 256,1154 305,858 277,948 288,1136 303,1295 280,1822 310,1211 322,872 328,1232 328,912 272,:5:70A :17AE70AE36509F31B2A1AAD1315237A141B1AAA1311236C14181A99130C235E14141AA71315237014161A99130F236514161A9B0F29236413E91AA50759236F13911A9D0171236512341A9900F5236911851AAE01672371120E1AA9028A236B12AC1AA20443236C132A1AA306672361138A1A9D0897236113BD1A9D0A97236613E21A9D0C3D236213F71AA30D99236B14051AA50EAD2368140C1A9B0F8A236614131AA01048236A14161A9E10D7236214121A9E114C2365140F1AAE11B02374140E1A9D11FD236314121AAD1237236B140B1A98126A2363140D1AB41292237014123D473DFB1B281D  ,:5:70A :17AE70AE36509F31B2A1AAD1315237A141B1AAA1311236C14181A99130C235E14141AA71315237014161A99130F236514161A9B0F29236413E91AA50759236F13911A9D0171236512341A9900F5236911851AAE01672371120E1AA9028A236B12AC1AA20443236C132A1AA306672361138A1A9D0897236113BD1A9D0A97236613E21A9D0C3D236213F71AA30D99236B14051AA50EAD2368140C1A9B0F8A236614131AA01048236A14161A9E10D7236214121A9E114C2365140F1AAE11B02374140E1A9D11FD236314121AAD1237236B140B1A98126A2363140D1AB41292237014123D473DFB1B281D  ,3,,,,,,,,,
2024-11-21T15:00:00Z,100,1000,7999,179,208,1000,NAN,0.25,1003.6,48,19.7,8.6,1.2,13.2,37-26087,18.3604,3E-05,-0.178,NAN,0.0093,12.1,1522,170.8,160.9,-160.5,0.091,18.89,113 237,861 304,1692 299,1096 301,1972 268,677 346,993 287,1798 252,1166 265,1058 274,1127 291,588 302,1012 298,361 285,1310 312,830 295,1135 299,1728 304,1029 304,997 298,1249 265,1550 285,2062 282,918 296,1305 247,1441 244,1061 293,617 240,509 290,1695 294,1110 279,1535 260,1266 303,1273 303,843 273,1090 307,1207 319,748 269,721 245,1426 245,:5:70A :17AE70AE364FBE31B211AA313062375140A1AA112FF236D13FD1A9912FF236B14021A9F1304236713FB1A9D12F9236813FB1AA310A9236A13DE1A9506D92364134F1A9B01AF235F12171AAB00F6236D11491A910154236611A61A980257235A12571A9703EF235C12F71AA205FE236213581A9A081E235B13921AA30A25235E13C31AA40BE5236513D91A940D5F236313E81A9C0E96236113EC1A9C0F86236413F91A9F1055236613FC1AA810EC236713F71AA51174236613FF1A9F11CC236113FF1A9D1211235E13F91AA2124B235F13F81AA3127B236613FA1A9A129D236413FA3D543E091B2264  ,:5:70A :17AE70AE364FBE31B211AA313062375140A1AA112FF236D13FD1A9912FF236B14021A9F1304236713FB1A9D12F9236813FB1AA310A9236A13DE1A9506D92364134F1A9B01AF235F12171AAB00F6236D11491A910154236611A61A980257235A12571A9703EF235C12F71AA205FE236213581A9A081E235B13921AA30A25235E13C31AA40BE5236513D91A940D5F236313E81A9C0E96236113EC1A9C0F86236413F91A9F1055236613FC1AA810EC236713F71AA51174236613FF1A9F11CC236113FF1A9D1211235E13F91AA2124B235F13F81AA3127B236613FA1A9A129D236413FA3D543E091B2264  ,3,,,,,,,,,
2024-11-21T14:00:00Z,41.38521,2.195591,29,122,151,1.19,153,1.19,1003.9,48,19.3,8.2,1.2,12.9,37-26087,18.1758,3E-05,-0.175,NAN,0.0092,12.1,1522,170.3,160.6,-160.5,0.094,18.9,1164 251,1019 298,1075 259,855 314,1488 317,1139 322,716 271,1089 280,884 294,1032 341,1025 227,1357 289,1749 323,1472 258,1332 301,739 269,347 28,1751 243,1267 295,965 329,839 252,1095 311,1137 311,1685 263,1628 322,1212 250,1066 316,1251 322,459 307,1930 246,1491 228,1119 333,1321 245,1721 306,1013 297,1767 295,1155 265,1189 214,1590 261,1667 259,:5:70A :17AE70AE364EDD31B171AB01306237C14011AA012F1236E13EF1A9212F2236013EE1AA712EF236E13EF1AA312ED237413EA1A9D10E0236F13E01A9105912364132F1A9B0178235C11E61A9C00F2236111401AA1015E236811A01A9A0259236812431A9D03E3235D12CB1A8F05F92355133E1A950820236713811AA20A23236313B01A990BE9235F13CD1A8E0D54235C13D51AA00E89236613E41A9F0F96236913EF1A951049235C13E21A9C10ED236513E71AA11168236C13E81A9911BF236413E61A98120B236513ED1A94123F235F13DE1A981267236713E01A96128F235713E23D5B3E121B1A0D  ,:5:70A :17AE70AE364EDD31B171AB01306237C14011AA012F1236E13EF1A9212F2236013EE1AA712EF236E13EF1AA312ED237413EA1A9D10E0236F13E01A9105912364132F1A9B0178235C11E61A9C00F2236111401AA1015E236811A01A9A0259236812431A9D03E3235D12CB1A8F05F92355133E1A950820236713811AA20A23236313B01A990BE9235F13CD1A8E0D54235C13D51AA00E89236613E41A9F0F96236913EF1A951049235C13E21A9C10ED236513E71AA11168236C13E81A9911BF236413E61A98120B236513ED1A94123F235F13DE1A981267236713E01A96128F235713E23D5B3E121B1A0D  ,3,,,,,,,,,
2024-11-21T13:00:00Z,41.38525,2.195693,21,277,306,0.64,308,0.64,1004.9,52,18.6,8.8,1.2,12.8,37-26087,18.0693,3E-05,-0.165,NAN,0.0092,12.1,1523,169.3,161.2,-160.5,0.106,19.18,818 317,1684 255,1249 290,1844 326,1354 277,902 285,1224 274,1422 278,1009 318,1392 312,783 319,1245 299,758 307,1166 316,630 307,723 275,538 317,2237 300,1337 256,584 359,1017 311,673 319,694 324,1000 272,1383 288,1041 300,1159 309,121 118,1474 308,1915 266,1087 284,897 290,862 307,1437 265,431 329,1748 330,1189 287,1657 333,1364 220,1008 246,:5:70A :17AE70AE364DFC31AF01A9D12F7237213EC1A8C12EE236513E71A9A12EC236A13E21A8712F0235F13E61A8912F2235513EB1A810F30235513B01A8D06CD235E13671A960175236C12281A8F00E2236611591A910135236011891A830233236512191A8903A6234C12A81A8B05872359131D1A8F0795236413691A9209AE235C13991A950BAF235E13B81A8C0D4D236113D01A990E86236613D51A8F0F83236413DA1A97104D236213D71A8B10E0235513CC1A97115D236713D81A8911BC235F13D71A9C1200236513D61AA11235237213D41A881261235C13D71A951281236013D73D5B3E121AEEA1  ,:5:70A :17AE70AE364DFC31AF01A9D12F7237213EC1A8C12EE236513E71A9A12EC236A13E21A8712F0235F13E61A8912F2235513EB1A810F30235513B01A8D06CD235E13671A960175236C12281A8F00E2236611591A910135236011891A830233236512191A8903A6234C12A81A8B05872359131D1A8F0795236413691A9209AE235C13991A950BAF235E13B81A8C0D4D236113D01A990E86236613D51A8F0F83236413DA1A97104D236213D71A8B10E0235513CC1A97115D236713D81A8911BC235F13D71A9C1200236513D61AA11235237213D41A881261235C13D71A951281236013D73D5B3E121AEEA1  ,3,,,,,,,,,
2024-11-21T12:00:00Z,41.38534,2.195756,30,254,283,0.42,285,0.42,1006.2,47,18.7,7.4,1.2,12.3,37-26087,18.3102,3E-05,-0.151,NAN,0.0093,12.1,1525,170.2,161.2,-160.5,0.125,20.15,1009 260,1528 262,561 314,948 309,1078 324,1265 271,1129 319,1727 316,1812 262,1372 284,640 267,172 359,1043 320,548 310,549 288,674 265,1210 308,1382 253,1036 277,823 295,1146 293,1643 268,1768 277,1720 285,791 295,1323 254,1267 304,1546 295,1205 309,336 202,1343 316,1689 227,938 287,965 286,1250 341,1502 289,1405 251,747 265,892 345,1450 278,:5:70A :17AE70AE364D1B31A6D1A8312F7237613E71A6B12E6236013D21A6712ED235A13DB1A7B12F2236113DC1A7012DD235B13CB1A7E0FFD236913A91A7C08E9235B13B21A7801B1235212B21A8000E8236411C31A760137235611CE1A78021A235B121B1A6C03B0235512A11A7B05D5235513071A7B08192360134C1A800A0F235B13781A7A0BEF235513971A7C0D57235A13A61A730E91235B13C21A7B0F7A236113CB1A7E103F235713CE1A7510D7235613CE1A72114F235813D71A76119E235413C61A7311E8235313C91A7A1226236913D01A79125C236213CD1A701272235513CB3D453DF91A8A79  ,:5:70A :17AE70AE364D1B31A6D1A8312F7237613E71A6B12E6236013D21A6712ED235A13DB1A7B12F2236113DC1A7012DD235B13CB1A7E0FFD236913A91A7C08E9235B13B21A7801B1235212B21A8000E8236411C31A760137235611CE1A78021A235B121B1A6C03B0235512A11A7B05D5235513071A7B08192360134C1A800A0F235B13781A7A0BEF235513971A7C0D57235A13A61A730E91235B13C21A7B0F7A236113CB1A7E103F235713CE1A7510D7235613CE1A72114F235813D71A76119E235413C61A7311E8235313C91A7A1226236913D01A79125C236213CD1A701272235513CB3D453DF91A8A79  ,3,,,,,,,,,
2024-11-21T11:00:00Z,41.38538,2.195731,42,65,94,0.31,96,0.31,1007.1,49,18.4,7.6,1.2,12.2,37-26087,NAN,NAN,NAN,NAN,NAN,12.1,1531,175.7,161.2,-160.7,0.146,22.28,602 313,1043 278,349 166,873 319,659 293,1037 310,1228 281,1358 239,1048 274,795 278,1094 285,791 304,1438 283,1399 295,1227 326,1344 320,1456 337,1128 338,1482 267,1223 301,1187 301,1354 296,1042 276,1253 262,523 336,1202 257,450 302,719 327,1121 288,1181 323,858 288,1002 320,1408 295,1375 334,1339 272,947 228,1075 282,589 269,1077 303,956 311,:5:70A :17AE70AE364C3A619891A4412E4235A13CD1A4512E7236613CD1A3B12E5235813C71A3B12E8235913C31A4712E8235513CC1A4611EC235213BC1A420A322359138E1A4D0258235612AE1A4900B6235A11DB1A4100E7235111DB1A4901A1235712011A420303234E12781A4704FD235212FC1A4D0754235B135E1A4A0994235613981A4E0B98235613C01A460D33234B13D41A4C0E84235113C71A4D0F98235513C91A4D105A235513C31A4510F8235313BC1A43117B234B13C21A3B11D2234A13B71A4E1218235513C31A3E124A234213BB1A421275234D13BC1A4F1295235813BF3D853E2919A14A  ,:5:70A :17AE70AE364C3A619891A4412E4235A13CD1A4512E7236613CD1A3B12E5235813C71A3B12E8235913C31A4712E8235513CC1A4611EC235213BC1A420A322359138E1A4D0258235612AE1A4900B6235A11DB1A4100E7235111DB1A4901A1235712011A420303234E12781A4704FD235212FC1A4D0754235B135E1A4A0994235613981A4E0B98235613C01A460D33234B13D41A4C0E84235113C71A4D0F98235513C91A4D105A235513C31A4510F8235313BC1A43117B234B13C21A3B11D2234A13B71A4E1218235513C31A3E124A234213BB1A421275234D13BC1A4F1295235813BF3D853E2919A14A  ,3,,,,,,,,,
2024-11-21T10:00:00Z,41.38527,2.195813,34,87,116,0.52,118,0.52,1008.2,52,17.9,8,1.2,12.2,37-26087,NAN,NAN,NAN,NAN,NAN,NAN,NAN,NAN,NAN,NAN,NAN,NAN,,,,,,,,,,,,,,,,,,,,,,,,,,,,,,,,,,,,,,,,,,,3,,,,,,,,,
2024-11-21T09:00:00Z,41.38572,2.195571,28,294,325,0.28,327,0.28,1009,56,16.9,8.1,1.2,11.8,37-26087,NAN,NAN,NAN,NAN,NAN,NAN,NAN,NAN,NAN,NAN,NAN,NAN,,,,,,,,,,,,,,,,,,,,,,,,,,,,,,,,,,,,,,,,,,,3,,,,,,,,,
2024-11-21T08:00:00Z,41.38534,2.195721,48,324,353,0.12,355,0.12,1009.7,62,16.3,9.1,1.2,12,37-26087,NAN,NAN,NAN,NAN,NAN,NAN,NAN,NAN,NAN,NAN,NAN,NAN,,,,,,,,,,,,,,,,,,,,,,,,,,,,,,,,,,,,,,,,,,,3,,,,,,,,,
2024-11-21T07:00:00Z,100,1000,7999,289,318,1000,NAN,0.39,1009.8,69,15.4,9.8,1.2,11.9,37-26087,NAN,NAN,NAN,NAN,NAN,NAN,NAN,NAN,NAN,NAN,NAN,NAN,,,,,,,,,,,,,,,,,,,,,,,,,,,,,,,,,,,,,,,,,,,3,,,,,,,,,
2024-11-21T06:00:00Z,41.38579,2.195585,-60,278,345,0.16,347,0.18,1010.2,71,15.1,10.1,1.2,11.9,37-26087,NAN,NAN,NAN,NAN,NAN,NAN,NAN,NAN,NAN,NAN,NAN,NAN,,,,,,,,,,,,,,,,,,,,,,,,,,,,,,,,,,,,,,,,,,,3,,,,,,,,,
2024-11-21T05:00:00Z,41.38527,2.195708,4,256,312,0.41,314,0.26,1010.5,74,15.2,10.7,1.2,12.3,37-26087,NAN,NAN,NAN,NAN,NAN,NAN,NAN,NAN,NAN,NAN,NAN,NAN,,,,,,,,,,,,,,,,,,,,,,,,,,,,,,,,,,,,,,,,,,,3,,,,,,,,,
2024-11-21T04:00:00Z,41.385,2.195536,63,238,267,0.49,269,0.49,1011,74,16.1,11.6,1.2,13.2,37-26087,NAN,NAN,NAN,NAN,NAN,NAN,NAN,NAN,NAN,NAN,NAN,NAN,,,,,,,,,,,,,,,,,,,,,,,,,,,,,,,,,,,,,,,,,,,3,,,,,,,,,
2024-11-21T03:00:00Z,41.38533,2.19586,13,298,327,0.4,329,0.4,1011.4,77,16.3,12.3,1.2,13.7,37-26087,NAN,NAN,NAN,NAN,NAN,NAN,NAN,NAN,NAN,NAN,NAN,NAN,,,,,,,,,,,,,,,,,,,,,,,,,,,,,,,,,,,,,,,,,,,3,,,,,,,,,
2024-11-21T02:00:00Z,41.38527,2.195665,18,211,240,0.38,242,0.36,1011.8,79,16.4,12.7,1.2,14,37-26087,NAN,NAN,NAN,NAN,NAN,NAN,NAN,NAN,NAN,NAN,NAN,NAN,,,,,,,,,,,,,,,,,,,,,,,,,,,,,,,,,,,,,,,,,,,3,,,,,,,,,
2024-11-21T01:00:00Z,100,1000,7999,182,211,1000,NAN,0.96,1012,76,16.4,12.2,1.2,13.6,37-26087,NAN,NAN,NAN,NAN,NAN,NAN,NAN,NAN,NAN,NAN,NAN,NAN,,,,,,,,,,,,,,,,,,,,,,,,,,,,,,,,,,,,,,,,,,,3,,,,,,,,,
2024-11-21T00:00:00Z,100,1000,7999,159,188,1000,NAN,1.16,1012.4,76,16.4,12.3,1.2,13.7,37-26087,NAN,NAN,NAN,NAN,NAN,NAN,NAN,NAN,NAN,NAN,NAN,NAN,,,,,,,,,,,,,,,,,,,,,,,,,,,,,,,,,,,,,,,,,,,3,,,,,,,,,
2024-11-20T23:00:00Z,41.38527,2.19583,45,142,171,1.35,173,1.35,1012.2,78,16.7,13,1.2,14.3,37-26087,NAN,NAN,NAN,NAN,NAN,NAN,NAN,NAN,NAN,NAN,NAN,NAN,,,,,,,,,,,,,,,,,,,,,,,,,,,,,,,,,,,,,,,,,,,2,,,,,,,,,
2024-11-20T22:00:00Z,41.38535,2.195562,45,299,328,0.06,330,0.06,1011.7,63,17.3,10.3,1.2,13,37-26087,NAN,NAN,NAN,NAN,NAN,NAN,NAN,NAN,NAN,NAN,NAN,NAN,,,,,,,,,,,,,,,,,,,,,,,,,,,,,,,,,,,,,,,,,,,2,,,,,,,,,
2024-11-20T21:00:00Z,41.38536,2.195668,46,100,129,0.11,131,0.11,1011.1,53,17.6,8.1,1.2,12.1,37-26087,NAN,NAN,NAN,NAN,NAN,NAN,NAN,NAN,NAN,NAN,NAN,NAN,,,,,,,,,,,,,,,,,,,,,,,,,,,,,,,,,,,,,,,,,,,2,,,,,,,,,
2024-11-20T20:00:00Z,41.38534,2.195666,31,158,187,0.33,189,0.33,1010.6,52,18.1,8.2,1.2,12.4,37-26087,NAN,NAN,NAN,NAN,NAN,NAN,NAN,NAN,NAN,NAN,NAN,NAN,,,,,,,,,,,,,,,,,,,,,,,,,,,,,,,,,,,,,,,,,,,2,,,,,,,,,
2024-11-20T19:00:00Z,41.38517,2.195636,7,54,90,0.25,92,0.32,1010.2,52,18.3,8.4,1.2,12.6,37-26087,NAN,NAN,NAN,NAN,NAN,NAN,NAN,NAN,NAN,NAN,NAN,NAN,,,,,,,,,,,,,,,,,,,,,,,,,,,,,,,,,,,,,,,,,,,2,,,,,,,,,
2024-11-20T18:00:00Z,41.38525,2.195621,14,64,92,0.15,94,0.15,1010.1,51,18.7,8.6,1.2,12.8,37-26087,NAN,NAN,NAN,NAN,NAN,NAN,NAN,NAN,NAN,NAN,NAN,NAN,,,,,,,,,,,,,,,,,,,,,,,,,,,,,,,,,,,,,,,,,,,2,,,,,,,,,
2024-11-20T17:00:00Z,41.38525,2.195655,24,248,276,0.6,278,0.6,1010.1,51,18.9,8.7,1.2,13,37-26087,NAN,NAN,NAN,NAN,NAN,NAN,NAN,NAN,NAN,NAN,NAN,NAN,,,,,,,,,,,,,,,,,,,,,,,,,,,,,,,,,,,,,,,,,,,2,,,,,,,,,
2024-11-20T16:00:00Z,41.38507,2.195582,-5,101,129,1.22,131,1.22,1009.6,51,19.4,9.2,1.2,13.4,37-26087,NAN,NAN,NAN,NAN,NAN,NAN,NAN,NAN,NAN,NAN,NAN,NAN,,,,,,,,,,,,,,,,,,,,,,,,,,,,,,,,,,,,,,,,,,,2,,,,,,,,,
2024-11-20T15:00:00Z,100,1000,7999,113,141,1000,NAN,0.3,1008.9,50,20,9.5,1.2,13.8,37-26087,NAN,NAN,NAN,NAN,NAN,NAN,NAN,NAN,NAN,NAN,NAN,NAN,,,,,,,,,,,,,,,,,,,,,,,,,,,,,,,,,,,,,,,,,,,2,,,,,,,,,
2024-11-20T14:00:00Z,41.38521,2.195633,30,115,143,0.93,145,0.93,1008.9,51,20.1,9.8,1.2,14,37-26087,NAN,NAN,NAN,NAN,NAN,NAN,NAN,NAN,NAN,NAN,NAN,NAN,,,,,,,,,,,,,,,,,,,,,,,,,,,,,,,,,,,,,,,,,,,2,,,,,,,,,
2024-11-20T13:00:00Z,41.38524,2.195691,27,69,97,0.45,99,0.45,1009.3,53,19.1,9.5,1.2,13.4,37-26087,NAN,NAN,NAN,NAN,NAN,NAN,NAN,NAN,NAN,NAN,NAN,NAN,,,,,,,,,,,,,,,,,,,,,,,,,,,,,,,,,,,,,,,,,,,2,,,,,,,,,
2024-11-20T12:00:00Z,41.3853,2.195728,32,295,323,0.35,325,0.35,1009.8,55,18.4,9.2,1.2,13,37-26087,NAN,NAN,NAN,NAN,NAN,NAN,NAN,NAN,NAN,NAN,NAN,NAN,,,,,,,,,,,,,,,,,,,,,,,,,,,,,,,,,,,,,,,,,,,2,,,,,,,,,
2024-11-20T11:00:00Z,41.38531,2.195691,33,96,130,0.17,132,0.16,1010.1,55,17.9,8.9,1.2,12.6,37-26087,NAN,NAN,NAN,NAN,NAN,NAN,NAN,NAN,NAN,NAN,NAN,NAN,,,,,,,,,,,,,,,,,,,,,,,,,,,,,,,,,,,,,,,,,,,2,,,,,,,,,
2024-11-20T10:00:00Z,41.38534,2.195675,25,55,85,0.67,87,0.67,1008.3,56,17.5,8.7,1.2,12.3,37-26087,NAN,NAN,NAN,NAN,NAN,NAN,NAN,NAN,NAN,NAN,NAN,NAN,,,,,,,,,,,,,,,,,,,,,,,,,,,,,,,,,,,,,,,,,,,2,,,,,,,,,
2024-11-20T09:00:00Z,41.38537,2.195633,31,171,200,0.59,202,0.59,1008.2,58,17.1,8.8,1.2,12.1,37-26087,NAN,NAN,NAN,NAN,NAN,NAN,NAN,NAN,NAN,NAN,NAN,NAN,,,,,,,,,,,,,,,,,,,,,,,,,,,,,,,,,,,,,,,,,,,2,,,,,,,,,
2024-11-20T08:00:00Z,41.38534,2.19568,59,318,347,1.15,349,1.15,1008.1,60,16.7,9.1,1.2,12.2,37-26087,NAN,NAN,NAN,NAN,NAN,NAN,NAN,NAN,NAN,NAN,NAN,NAN,,,,,,,,,,,,,,,,,,,,,,,,,,,,,,,,,,,,,,,,,,,2,,,,,,,,,
2024-11-20T07:00:00Z,100,1000,7999,119,148,1000,NAN,0.69,1007.7,59,16.8,8.9,1.2,12.1,37-26087,NAN,NAN,NAN,NAN,NAN,NAN,NAN,NAN,NAN,NAN,NAN,NAN,,,,,,,,,,,,,,,,,,,,,,,,,,,,,,,,,,,,,,,,,,,2,,,,,,,,,
2024-11-20T06:00:00Z,41.38562,2.195681,-49,103,129,0.9,131,0.92,1007.7,60,17,9.3,1.2,12.3,37-26087,NAN,NAN,NAN,NAN,NAN,NAN,NAN,NAN,NAN,NAN,NAN,NAN,,,,,,,,,,,,,,,,,,,,,,,,,,,,,,,,,,,,,,,,,,,2,,,,,,,,,
2024-11-20T05:00:00Z,41.38514,2.195491,-43,10,39,0.49,40.95,0.49,1008.3,62,17.2,9.8,1.2,12.7,37-26087,NAN,NAN,NAN,NAN,NAN,NAN,NAN,NAN,NAN,NAN,NAN,NAN,,,,,,,,,,,,,,,,,,,,,,,,,,,,,,,,,,,,,,,,,,,2,,,,,,,,,
2024-11-20T04:00:00Z,100,1000,7999,131,160,1000,NAN,0.91,1008.6,62,17.4,10.2,1.2,13,37-26087,NAN,NAN,NAN,NAN,NAN,NAN,NAN,NAN,NAN,NAN,NAN,NAN,,,,,,,,,,,,,,,,,,,,,,,,,,,,,,,,,,,,,,,,,,,2,,,,,,,,,
2024-11-20T03:00:00Z,41.3853,2.195389,-1,265,261,0.19,263,0.06,1009.2,63,17.3,10.3,1.2,13,37-26087,NAN,NAN,NAN,NAN,NAN,NAN,NAN,NAN,NAN,NAN,NAN,NAN,,,,,,,,,,,,,,,,,,,,,,,,,,,,,,,,,,,,,,,,,,,2,,,,,,,,,
2024-11-20T02:00:00Z,41.38529,2.195531,44,286,315,0.51,317,0.51,1010,65,16.8,10.2,1.2,12.7,37-26087,NAN,NAN,NAN,NAN,NAN,NAN,NAN,NAN,NAN,NAN,NAN,NAN,,,,,,,,,,,,,,,,,,,,,,,,,,,,,,,,,,,,,,,,,,,2,,,,,,,,,
2024-11-20T01:00:00Z,100,1000,7999,263,292,1000,NAN,0.05,1010.7,69,16.5,10.9,1.2,13,37-26087,NAN,NAN,NAN,NAN,NAN,NAN,NAN,NAN,NAN,NAN,NAN,NAN,,,,,,,,,,,,,,,,,,,,,,,,,,,,,,,,,,,,,,,,,,,2,,,,,,,,,
2024-11-20T00:00:00Z,100,1000,7999,312,341,1000,NAN,0.5,1011.3,67,16.9,10.8,1.2,13.1,37-26087,NAN,NAN,NAN,NAN,NAN,NAN,NAN,NAN,NAN,NAN,NAN,NAN,,,,,,,,,,,,,,,,,,,,,,,,,,,,,,,,,,,,,,,,,,,2,,,,,,,,,
2024-11-19T23:00:00Z,41.38527,2.194409,-9,131,160,0.13,162,0.13,1011.9,69,16.8,11.2,1.2,13.3,37-26087,NAN,NAN,NAN,NAN,NAN,NAN,NAN,NAN,NAN,NAN,NAN,NAN,,,,,,,,,,,,,,,,,,,,,,,,,,,,,,,,,,,,,,,,,,,1,,,,,,,,,
2024-11-19T22:00:00Z,41.38537,2.195235,39,313,342,0.46,344,0.46,1012.5,68,17,11.3,1.2,13.4,37-26087,NAN,NAN,NAN,NAN,NAN,NAN,NAN,NAN,NAN,NAN,NAN,NAN,,,,,,,,,,,,,,,,,,,,,,,,,,,,,,,,,,,,,,,,,,,1,,,,,,,,,
2024-11-19T21:00:00Z,41.3853,2.195641,37,284,313,0.32,315,0.32,1012.6,73,17,12.2,1.2,13.9,37-26087,NAN,NAN,NAN,NAN,NAN,NAN,NAN,NAN,NAN,NAN,NAN,NAN,,,,,,,,,,,,,,,,,,,,,,,,,,,,,,,,,,,,,,,,,,,1,,,,,,,,,
2024-11-19T20:00:00Z,41.3853,2.19572,50,291,321,0.12,323,0.1,1012.7,75,17.1,12.7,1.2,14.2,37-26087,NAN,NAN,NAN,NAN,NAN,NAN,NAN,NAN,NAN,NAN,NAN,NAN,,,,,,,,,,,,,,,,,,,,,,,,,,,,,,,,,,,,,,,,,,,1,,,,,,,,,
2024-11-19T19:00:00Z,41.38529,2.195793,20,298,327,0.24,329,0.24,1013.1,79,16.8,13.2,1.2,14.4,37-26087,NAN,NAN,NAN,NAN,NAN,NAN,NAN,NAN,NAN,NAN,NAN,NAN,,,,,,,,,,,,,,,,,,,,,,,,,,,,,,,,,,,,,,,,,,,1,,,,,,,,,
2024-11-19T18:00:00Z,41.3852,2.195585,17,355,24,0.3,25.95,0.3,1013.2,75,17.4,13,1.2,14.5,37-26087,NAN,NAN,NAN,NAN,NAN,NAN,NAN,NAN,NAN,NAN,NAN,NAN,,,,,,,,,,,,,,,,,,,,,,,,,,,,,,,,,,,,,,,,,,,1,,,,,,,,,
2024-11-19T17:00:00Z,41.38522,2.19564,14,235,264,0.7,266,0.7,1012.8,75,17.5,13.1,1.2,14.6,37-26087,NAN,NAN,NAN,NAN,NAN,NAN,NAN,NAN,NAN,NAN,NAN,NAN,,,,,,,,,,,,,,,,,,,,,,,,,,,,,,,,,,,,,,,,,,,1,,,,,,,,,
2024-11-19T16:00:00Z,41.38507,2.19564,-2,186,215,0.46,217,0.46,1012.8,75,17.9,13.4,1.2,14.9,37-26087,NAN,NAN,NAN,NAN,NAN,NAN,NAN,NAN,NAN,NAN,NAN,NAN,,,,,,,,,,,,,,,,,,,,,,,,,,,,,,,,,,,,,,,,,,,1,,,,,,,,,
2024-11-19T15:00:00Z,100,1000,7999,95,123,1000,125,1.09,1012.8,73,18.9,14.1,1.2,15.7,37-26087,NAN,NAN,NAN,NAN,NAN,NAN,NAN,NAN,NAN,NAN,NAN,NAN,,,,,,,,,,,,,,,,,,,,,,,,,,,,,,,,,,,,,,,,,,,1,,,,,,,,,
2024-11-19T14:00:00Z,41.38524,2.195588,63,66,94,1.43,96,1.43,1013.2,71,18.8,13.4,1.2,15.3,37-26087,NAN,NAN,NAN,NAN,NAN,NAN,NAN,NAN,NAN,NAN,NAN,NAN,,,,,,,,,,,,,,,,,,,,,,,,,,,,,,,,,,,,,,,,,,,1,,,,,,,,,
2024-11-19T13:16:00Z,41.3853,2.195656,58,68,96,1.29,98,1.29,1013.4,66,18.9,12.5,1.2,14.8,,,,,,,,,,,,,,,,,,,,,,,,,,,,,,,,,,,,,,,,,,,,,,,,,,,,,,,,,,,,,,,,,
2024-11-19T13:15:00Z,41.3853,2.195658,57,101,129,0.89,131,0.89,1013.5,65,18.9,12.3,1.2,14.7,,,,,,,,,,,,,,,,,,,,,,,,,,,,,,,,,,,,,,,,,,,,,,,,,,,,,,,,,,,,,,,,,
2024-11-19T13:14:00Z,41.3853,2.19566,57,65,93,1.09,95,1.09,1013.5,66,18.9,12.6,1.2,14.8,,,,,,,,,,,,,,,,,,,,,,,,,,,,,,,,,,,,,,,,,,,,,,,,,,,,,,,,,,,,,,,,,
2024-11-19T13:13:00Z,41.3853,2.195661,57,96,124,1.5,126,1.5,1013.5,66,18.9,12.6,1.2,14.8,,,,,,,,,,,,,,,,,,,,,,,,,,,,,,,,,,,,,,,,,,,,,,,,,,,,,,,,,,,,,,,,,
2024-11-19T13:12:00Z,41.38531,2.195671,57,59,87,1.2,89,1.2,1013.5,66,18.9,12.5,1.2,14.8,,,,,,,,,,,,,,,,,,,,,,,,,,,,,,,,,,,,,,,,,,,,,,,,,,,,,,,,,,,,,,,,,
2024-11-19T13:11:00Z,41.38533,2.195675,57,77,105,1.38,107,1.38,1013.5,66,18.9,12.6,1.2,14.8,,,,,,,,,,,,,,,,,,,,,,,,,,,,,,,,,,,,,,,,,,,,,,,,,,,,,,,,,,,,,,,,,
2024-11-19T13:10:00Z,41.38533,2.195675,57,112,140,1.32,142,1.32,1013.5,66,18.9,12.4,1.2,14.8,,,,,,,,,,,,,,,,,,,,,,,,,,,,,,,,,,,,,,,,,,,,,,,,,,,,,,,,,,,,,,,,,
2024-11-19T13:09:00Z,41.38533,2.195678,58,58,86,0.81,88,0.81,1013.5,65,18.8,12.3,1.2,14.7,,,,,,,,,,,,,,,,,,,,,,,,,,,,,,,,,,,,,,,,,,,,,,,,,,,,,,,,,,,,,,,,,
2024-11-19T13:08:00Z,41.38534,2.19568,58,99,127,1.64,129,1.64,1013.6,66,18.9,12.5,1.2,14.8,,,,,,,,,,,,,,,,,,,,,,,,,,,,,,,,,,,,,,,,,,,,,,,,,,,,,,,,,,,,,,,,,
2024-11-19T13:07:00Z,41.38534,2.195681,58,83,111,1.56,113,1.56,1013.5,67,18.9,12.8,1.2,14.9,,,,,,,,,,,,,,,,,,,,,,,,,,,,,,,,,,,,,,,,,,,,,,,,,,,,,,,,,,,,,,,,,
2024-11-19T13:06:00Z,41.38534,2.195685,57,98,126,1.42,128,1.42,1013.6,67,18.9,12.7,1.2,14.9,,,,,,,,,,,,,,,,,,,,,,,,,,,,,,,,,,,,,,,,,,,,,,,,,,,,,,,,,,,,,,,,,
2024-11-19T13:05:00Z,41.38534,2.195685,57,81,109,1.63,111,1.63,1013.6,66,18.9,12.5,1.2,14.8,,,,,,,,,,,,,,,,,,,,,,,,,,,,,,,,,,,,,,,,,,,,,,,,,,,,,,,,,,,,,,,,,
2024-11-19T13:04:00Z,41.38533,2.195686,58,89,117,1.1,119,1.1,1013.6,66,18.8,12.5,1.2,14.8,,,,,,,,,,,,,,,,,,,,,,,,,,,,,,,,,,,,,,,,,,,,,,,,,,,,,,,,,,,,,,,,,
2024-11-19T13:03:00Z,41.38533,2.195683,58,68,96,1.24,98,1.24,1013.6,65,18.8,12.3,1.2,14.6,,,,,,,,,,,,,,,,,,,,,,,,,,,,,,,,,,,,,,,,,,,,,,,,,,,,,,,,,,,,,,,,,
2024-11-19T08:00:00Z,,,,,,,,,,,,,,,37-26087,NAN,NAN,NAN,NAN,NAN,NAN,NAN,NAN,NAN,NAN,NAN,NAN,,,,,,,,,,,,,,,,,,,,,,,,,,,,,,,,,,,,,,,,,,,2,,,,,,,,,
2024-11-19T07:00:00Z,,,,,,,,,,,,,,,37-26087,NAN,NAN,NAN,NAN,NAN,NAN,NAN,NAN,NAN,NAN,NAN,NAN,,,,,,,,,,,,,,,,,,,,,,,,,,,,,,,,,,,,,,,,,,,2,,,,,,,,,
2024-11-19T06:00:00Z,,,,,,,,,,,,,,,37-26087,NAN,NAN,NAN,NAN,NAN,NAN,NAN,NAN,NAN,NAN,NAN,NAN,,,,,,,,,,,,,,,,,,,,,,,,,,,,,,,,,,,,,,,,,,,2,,,,,,,,,
2024-11-19T05:00:00Z,,,,,,,,,,,,,,,37-26087,NAN,NAN,NAN,NAN,NAN,NAN,NAN,NAN,NAN,NAN,NAN,NAN,,,,,,,,,,,,,,,,,,,,,,,,,,,,,,,,,,,,,,,,,,,2,,,,,,,,,
2024-11-19T04:00:00Z,,,,,,,,,,,,,,,37-26087,NAN,NAN,NAN,NAN,NAN,NAN,NAN,NAN,NAN,NAN,NAN,NAN,,,,,,,,,,,,,,,,,,,,,,,,,,,,,,,,,,,,,,,,,,,2,,,,,,,,,
2024-11-19T03:00:00Z,,,,,,,,,,,,,,,37-26087,NAN,NAN,NAN,NAN,NAN,NAN,NAN,NAN,NAN,NAN,NAN,NAN,,,,,,,,,,,,,,,,,,,,,,,,,,,,,,,,,,,,,,,,,,,2,,,,,,,,,
2024-11-19T02:00:00Z,,,,,,,,,,,,,,,37-26087,NAN,NAN,NAN,NAN,NAN,NAN,NAN,NAN,NAN,NAN,NAN,NAN,,,,,,,,,,,,,,,,,,,,,,,,,,,,,,,,,,,,,,,,,,,2,,,,,,,,,
2024-11-19T01:00:00Z,,,,,,,,,,,,,,,37-26087,NAN,NAN,NAN,NAN,NAN,NAN,NAN,NAN,NAN,NAN,NAN,NAN,,,,,,,,,,,,,,,,,,,,,,,,,,,,,,,,,,,,,,,,,,,2,,,,,,,,,
2024-11-19T00:00:00Z,,,,,,,,,,,,,,,37-26087,NAN,NAN,NAN,NAN,NAN,NAN,NAN,NAN,NAN,NAN,NAN,NAN,,,,,,,,,,,,,,,,,,,,,,,,,,,,,,,,,,,,,,,,,,,2,,,,,,,,,
2024-11-18T23:00:00Z,,,,,,,,,,,,,,,37-26087,NAN,NAN,NAN,NAN,NAN,NAN,NAN,NAN,NAN,NAN,NAN,NAN,,,,,,,,,,,,,,,,,,,,,,,,,,,,,,,,,,,,,,,,,,,1,,,,,,,,,
2024-11-18T22:00:00Z,,,,,,,,,,,,,,,37-26087,NAN,NAN,NAN,NAN,NAN,NAN,NAN,NAN,NAN,NAN,NAN,NAN,,,,,,,,,,,,,,,,,,,,,,,,,,,,,,,,,,,,,,,,,,,1,,,,,,,,,
2024-11-18T21:00:00Z,,,,,,,,,,,,,,,37-26087,NAN,NAN,NAN,NAN,NAN,NAN,NAN,NAN,NAN,NAN,NAN,NAN,,,,,,,,,,,,,,,,,,,,,,,,,,,,,,,,,,,,,,,,,,,1,,,,,,,,,
2024-11-18T20:00:00Z,,,,,,,,,,,,,,,37-26087,NAN,NAN,NAN,NAN,NAN,NAN,NAN,NAN,NAN,NAN,NAN,NAN,,,,,,,,,,,,,,,,,,,,,,,,,,,,,,,,,,,,,,,,,,,1,,,,,,,,,
2024-11-18T19:00:00Z,,,,,,,,,,,,,,,37-26087,NAN,NAN,NAN,NAN,NAN,NAN,NAN,NAN,NAN,NAN,NAN,NAN,,,,,,,,,,,,,,,,,,,,,,,,,,,,,,,,,,,,,,,,,,,1,,,,,,,,,
2024-11-18T18:00:00Z,,,,,,,,,,,,,,,37-26087,NAN,NAN,NAN,NAN,NAN,NAN,NAN,NAN,NAN,NAN,NAN,NAN,,,,,,,,,,,,,,,,,,,,,,,,,,,,,,,,,,,,,,,,,,,1,,,,,,,,,
2024-11-18T17:00:00Z,,,,,,,,,,,,,,,37-26087,NAN,NAN,NAN,NAN,NAN,NAN,NAN,NAN,NAN,NAN,NAN,NAN,,,,,,,,,,,,,,,,,,,,,,,,,,,,,,,,,,,,,,,,,,,1,,,,,,,,,
2024-11-18T16:00:00Z,,,,,,,,,,,,,,,37-26087,NAN,NAN,NAN,NAN,NAN,NAN,NAN,NAN,NAN,NAN,NAN,NAN,,,,,,,,,,,,,,,,,,,,,,,,,,,,,,,,,,,,,,,,,,,1,,,,,,,,,
2024-11-18T11:00:00Z,,,,,,,,,,,,,,,37-26087,NAN,NAN,NAN,NAN,NAN,NAN,NAN,NAN,NAN,NAN,NAN,NAN,,,,,,,,,,,,,,,,,,,,,,,,,,,,,,,,,,,,,,,,,,,3,,,,,,,,,
2024-11-18T10:00:00Z,,,,,,,,,,,,,,,37-26087,NAN,NAN,NAN,NAN,NAN,NAN,NAN,NAN,NAN,NAN,NAN,NAN,,,,,,,,,,,,,,,,,,,,,,,,,,,,,,,,,,,,,,,,,,,3,,,,,,,,,
2024-11-18T09:00:00Z,,,,,,,,,,,,,,,37-26087,NAN,NAN,NAN,NAN,NAN,NAN,NAN,NAN,NAN,NAN,NAN,NAN,,,,,,,,,,,,,,,,,,,,,,,,,,,,,,,,,,,,,,,,,,,3,,,,,,,,,
2024-11-18T08:00:00Z,,,,,,,,,,,,,,,37-26087,NAN,NAN,NAN,NAN,NAN,NAN,NAN,NAN,NAN,NAN,NAN,NAN,,,,,,,,,,,,,,,,,,,,,,,,,,,,,,,,,,,,,,,,,,,3,,,,,,,,,
2024-11-18T07:00:00Z,,,,,,,,,,,,,,,37-26087,NAN,NAN,NAN,NAN,NAN,NAN,NAN,NAN,NAN,NAN,NAN,NAN,,,,,,,,,,,,,,,,,,,,,,,,,,,,,,,,,,,,,,,,,,,3,,,,,,,,,
2024-11-18T06:00:00Z,,,,,,,,,,,,,,,37-26087,NAN,NAN,NAN,NAN,NAN,NAN,NAN,NAN,NAN,NAN,NAN,NAN,,,,,,,,,,,,,,,,,,,,,,,,,,,,,,,,,,,,,,,,,,,3,,,,,,,,,
2024-11-18T05:00:00Z,,,,,,,,,,,,,,,37-26087,NAN,NAN,NAN,NAN,NAN,NAN,NAN,NAN,NAN,NAN,NAN,NAN,,,,,,,,,,,,,,,,,,,,,,,,,,,,,,,,,,,,,,,,,,,3,,,,,,,,,
2024-11-18T04:00:00Z,,,,,,,,,,,,,,,37-26087,NAN,NAN,NAN,NAN,NAN,NAN,NAN,NAN,NAN,NAN,NAN,NAN,,,,,,,,,,,,,,,,,,,,,,,,,,,,,,,,,,,,,,,,,,,3,,,,,,,,,
2024-11-18T03:00:00Z,,,,,,,,,,,,,,,37-26087,NAN,NAN,NAN,NAN,NAN,NAN,NAN,NAN,NAN,NAN,NAN,NAN,,,,,,,,,,,,,,,,,,,,,,,,,,,,,,,,,,,,,,,,,,,3,,,,,,,,,
2024-11-18T02:00:00Z,,,,,,,,,,,,,,,37-26087,NAN,NAN,NAN,NAN,NAN,NAN,NAN,NAN,NAN,NAN,NAN,NAN,,,,,,,,,,,,,,,,,,,,,,,,,,,,,,,,,,,,,,,,,,,3,,,,,,,,,
2024-11-18T01:00:00Z,,,,,,,,,,,,,,,37-26087,NAN,NAN,NAN,NAN,NAN,NAN,NAN,NAN,NAN,NAN,NAN,NAN,,,,,,,,,,,,,,,,,,,,,,,,,,,,,,,,,,,,,,,,,,,3,,,,,,,,,
2024-11-18T00:00:00Z,,,,,,,,,,,,,,,37-26087,NAN,NAN,NAN,NAN,NAN,NAN,NAN,NAN,NAN,NAN,NAN,NAN,,,,,,,,,,,,,,,,,,,,,,,,,,,,,,,,,,,,,,,,,,,3,,,,,,,,,
2024-11-17T23:00:00Z,,,,,,,,,,,,,,,37-26087,NAN,NAN,NAN,NAN,NAN,NAN,NAN,NAN,NAN,NAN,NAN,NAN,,,,,,,,,,,,,,,,,,,,,,,,,,,,,,,,,,,,,,,,,,,2,,,,,,,,,
2024-11-17T22:00:00Z,,,,,,,,,,,,,,,37-26087,NAN,NAN,NAN,NAN,NAN,NAN,NAN,NAN,NAN,NAN,NAN,NAN,,,,,,,,,,,,,,,,,,,,,,,,,,,,,,,,,,,,,,,,,,,2,,,,,,,,,
2024-11-17T21:00:00Z,,,,,,,,,,,,,,,37-26087,NAN,NAN,NAN,NAN,NAN,NAN,NAN,NAN,NAN,NAN,NAN,NAN,,,,,,,,,,,,,,,,,,,,,,,,,,,,,,,,,,,,,,,,,,,2,,,,,,,,,
2024-11-17T20:00:00Z,,,,,,,,,,,,,,,37-26087,NAN,NAN,NAN,NAN,NAN,NAN,NAN,NAN,NAN,NAN,NAN,NAN,,,,,,,,,,,,,,,,,,,,,,,,,,,,,,,,,,,,,,,,,,,2,,,,,,,,,
2024-11-17T19:00:00Z,,,,,,,,,,,,,,,37-26087,NAN,NAN,NAN,NAN,NAN,NAN,NAN,NAN,NAN,NAN,NAN,NAN,,,,,,,,,,,,,,,,,,,,,,,,,,,,,,,,,,,,,,,,,,,2,,,,,,,,,
2024-11-17T18:00:00Z,,,,,,,,,,,,,,,37-26087,NAN,NAN,NAN,NAN,NAN,NAN,NAN,NAN,NAN,NAN,NAN,NAN,,,,,,,,,,,,,,,,,,,,,,,,,,,,,,,,,,,,,,,,,,,2,,,,,,,,,
2024-11-17T17:00:00Z,,,,,,,,,,,,,,,37-26087,NAN,NAN,NAN,NAN,NAN,NAN,NAN,NAN,NAN,NAN,NAN,NAN,,,,,,,,,,,,,,,,,,,,,,,,,,,,,,,,,,,,,,,,,,,2,,,,,,,,,
2024-11-17T16:00:00Z,,,,,,,,,,,,,,,37-26087,NAN,NAN,NAN,NAN,NAN,NAN,NAN,NAN,NAN,NAN,NAN,NAN,,,,,,,,,,,,,,,,,,,,,,,,,,,,,,,,,,,,,,,,,,,2,,,,,,,,,
2024-11-17T15:00:00Z,,,,,,,,,,,,,,,37-26087,NAN,NAN,NAN,NAN,NAN,NAN,NAN,NAN,NAN,NAN,NAN,NAN,,,,,,,,,,,,,,,,,,,,,,,,,,,,,,,,,,,,,,,,,,,2,,,,,,,,,
2024-11-17T14:00:00Z,,,,,,,,,,,,,,,37-26087,NAN,NAN,NAN,NAN,NAN,NAN,NAN,NAN,NAN,NAN,NAN,NAN,,,,,,,,,,,,,,,,,,,,,,,,,,,,,,,,,,,,,,,,,,,2,,,,,,,,,
2024-11-17T13:00:00Z,,,,,,,,,,,,,,,37-26087,NAN,NAN,NAN,NAN,NAN,NAN,NAN,NAN,NAN,NAN,NAN,NAN,,,,,,,,,,,,,,,,,,,,,,,,,,,,,,,,,,,,,,,,,,,2,,,,,,,,,
2024-11-17T12:00:00Z,,,,,,,,,,,,,,,37-26087,NAN,NAN,NAN,NAN,NAN,NAN,NAN,NAN,NAN,NAN,NAN,NAN,,,,,,,,,,,,,,,,,,,,,,,,,,,,,,,,,,,,,,,,,,,2,,,,,,,,,
2024-11-17T11:00:00Z,,,,,,,,,,,,,,,37-26087,NAN,NAN,NAN,NAN,NAN,NAN,NAN,NAN,NAN,NAN,NAN,NAN,,,,,,,,,,,,,,,,,,,,,,,,,,,,,,,,,,,,,,,,,,,2,,,,,,,,,
2024-11-17T10:00:00Z,,,,,,,,,,,,,,,37-26087,NAN,NAN,NAN,NAN,NAN,NAN,NAN,NAN,NAN,NAN,NAN,NAN,,,,,,,,,,,,,,,,,,,,,,,,,,,,,,,,,,,,,,,,,,,2,,,,,,,,,
2024-11-17T09:00:00Z,,,,,,,,,,,,,,,37-26087,NAN,NAN,NAN,NAN,NAN,NAN,NAN,NAN,NAN,NAN,NAN,NAN,,,,,,,,,,,,,,,,,,,,,,,,,,,,,,,,,,,,,,,,,,,2,,,,,,,,,
2024-11-17T08:00:00Z,,,,,,,,,,,,,,,37-26087,NAN,NAN,NAN,NAN,NAN,NAN,NAN,NAN,NAN,NAN,NAN,NAN,,,,,,,,,,,,,,,,,,,,,,,,,,,,,,,,,,,,,,,,,,,2,,,,,,,,,
2024-11-17T07:00:00Z,,,,,,,,,,,,,,,37-26087,NAN,NAN,NAN,NAN,NAN,NAN,NAN,NAN,NAN,NAN,NAN,NAN,,,,,,,,,,,,,,,,,,,,,,,,,,,,,,,,,,,,,,,,,,,2,,,,,,,,,
2024-11-17T06:00:00Z,,,,,,,,,,,,,,,37-26087,NAN,NAN,NAN,NAN,NAN,NAN,NAN,NAN,NAN,NAN,NAN,NAN,,,,,,,,,,,,,,,,,,,,,,,,,,,,,,,,,,,,,,,,,,,2,,,,,,,,,
2024-11-17T05:00:00Z,,,,,,,,,,,,,,,37-26087,NAN,NAN,NAN,NAN,NAN,NAN,NAN,NAN,NAN,NAN,NAN,NAN,,,,,,,,,,,,,,,,,,,,,,,,,,,,,,,,,,,,,,,,,,,2,,,,,,,,,
2024-11-17T04:00:00Z,,,,,,,,,,,,,,,37-26087,NAN,NAN,NAN,NAN,NAN,NAN,NAN,NAN,NAN,NAN,NAN,NAN,,,,,,,,,,,,,,,,,,,,,,,,,,,,,,,,,,,,,,,,,,,2,,,,,,,,,
2024-11-17T03:00:00Z,,,,,,,,,,,,,,,37-26087,NAN,NAN,NAN,NAN,NAN,NAN,NAN,NAN,NAN,NAN,NAN,NAN,,,,,,,,,,,,,,,,,,,,,,,,,,,,,,,,,,,,,,,,,,,2,,,,,,,,,
2024-11-17T02:00:00Z,,,,,,,,,,,,,,,37-26087,NAN,NAN,NAN,NAN,NAN,NAN,NAN,NAN,NAN,NAN,NAN,NAN,,,,,,,,,,,,,,,,,,,,,,,,,,,,,,,,,,,,,,,,,,,2,,,,,,,,,
2024-11-17T01:00:00Z,,,,,,,,,,,,,,,37-26087,NAN,NAN,NAN,NAN,NAN,NAN,NAN,NAN,NAN,NAN,NAN,NAN,,,,,,,,,,,,,,,,,,,,,,,,,,,,,,,,,,,,,,,,,,,2,,,,,,,,,
2024-11-17T00:00:00Z,,,,,,,,,,,,,,,37-26087,NAN,NAN,NAN,NAN,NAN,NAN,NAN,NAN,NAN,NAN,NAN,NAN,,,,,,,,,,,,,,,,,,,,,,,,,,,,,,,,,,,,,,,,,,,2,,,,,,,,,
2024-11-16T23:00:00Z,,,,,,,,,,,,,,,37-26087,NAN,NAN,NAN,NAN,NAN,NAN,NAN,NAN,NAN,NAN,NAN,NAN,,,,,,,,,,,,,,,,,,,,,,,,,,,,,,,,,,,,,,,,,,,1,,,,,,,,,
2024-11-16T22:00:00Z,,,,,,,,,,,,,,,37-26087,NAN,NAN,NAN,NAN,NAN,NAN,NAN,NAN,NAN,NAN,NAN,NAN,,,,,,,,,,,,,,,,,,,,,,,,,,,,,,,,,,,,,,,,,,,1,,,,,,,,,
2024-11-16T21:00:00Z,,,,,,,,,,,,,,,37-26087,NAN,NAN,NAN,NAN,NAN,NAN,NAN,NAN,NAN,NAN,NAN,NAN,,,,,,,,,,,,,,,,,,,,,,,,,,,,,,,,,,,,,,,,,,,1,,,,,,,,,
2024-11-16T20:00:00Z,,,,,,,,,,,,,,,37-26087,NAN,NAN,NAN,NAN,NAN,NAN,NAN,NAN,NAN,NAN,NAN,NAN,,,,,,,,,,,,,,,,,,,,,,,,,,,,,,,,,,,,,,,,,,,1,,,,,,,,,
2024-11-16T19:00:00Z,,,,,,,,,,,,,,,37-26087,NAN,NAN,NAN,NAN,NAN,NAN,NAN,NAN,NAN,NAN,NAN,NAN,,,,,,,,,,,,,,,,,,,,,,,,,,,,,,,,,,,,,,,,,,,1,,,,,,,,,
2024-11-16T18:00:00Z,,,,,,,,,,,,,,,37-26087,NAN,NAN,NAN,NAN,NAN,NAN,NAN,NAN,NAN,NAN,NAN,NAN,,,,,,,,,,,,,,,,,,,,,,,,,,,,,,,,,,,,,,,,,,,1,,,,,,,,,
2024-11-16T17:00:00Z,,,,,,,,,,,,,,,37-26087,NAN,NAN,NAN,NAN,NAN,NAN,NAN,NAN,NAN,NAN,NAN,NAN,,,,,,,,,,,,,,,,,,,,,,,,,,,,,,,,,,,,,,,,,,,1,,,,,,,,,
2024-11-16T16:00:00Z,,,,,,,,,,,,,,,37-26087,NAN,NAN,NAN,NAN,NAN,NAN,NAN,NAN,NAN,NAN,NAN,NAN,,,,,,,,,,,,,,,,,,,,,,,,,,,,,,,,,,,,,,,,,,,1,,,,,,,,,
2024-11-16T15:00:00Z,,,,,,,,,,,,,,,37-26087,NAN,NAN,NAN,NAN,NAN,NAN,NAN,NAN,NAN,NAN,NAN,NAN,,,,,,,,,,,,,,,,,,,,,,,,,,,,,,,,,,,,,,,,,,,1,,,,,,,,,
2024-11-16T14:00:00Z,,,,,,,,,,,,,,,37-26087,NAN,NAN,NAN,NAN,NAN,NAN,NAN,NAN,NAN,NAN,NAN,NAN,,,,,,,,,,,,,,,,,,,,,,,,,,,,,,,,,,,,,,,,,,,1,,,,,,,,,
2024-11-15T23:00:00Z,,,,,,,,,,,,,,,37-26087,NAN,NAN,NAN,NAN,NAN,NAN,NAN,NAN,NAN,NAN,NAN,NAN,,,,,,,,,,,,,,,,,,,,,,,,,,,,,,,,,,,,,,,,,,,1,,,,,,,,,
2024-11-15T22:00:00Z,,,,,,,,,,,,,,,37-26087,NAN,NAN,NAN,NAN,NAN,NAN,NAN,NAN,NAN,NAN,NAN,NAN,,,,,,,,,,,,,,,,,,,,,,,,,,,,,,,,,,,,,,,,,,,1,,,,,,,,,
2024-11-15T21:00:00Z,,,,,,,,,,,,,,,37-26087,NAN,NAN,NAN,NAN,NAN,NAN,NAN,NAN,NAN,NAN,NAN,NAN,,,,,,,,,,,,,,,,,,,,,,,,,,,,,,,,,,,,,,,,,,,1,,,,,,,,,
2024-11-15T20:00:00Z,,,,,,,,,,,,,,,37-26087,NAN,NAN,NAN,NAN,NAN,NAN,NAN,NAN,NAN,NAN,NAN,NAN,,,,,,,,,,,,,,,,,,,,,,,,,,,,,,,,,,,,,,,,,,,1,,,,,,,,,
2024-11-15T19:00:00Z,,,,,,,,,,,,,,,37-26087,NAN,NAN,NAN,NAN,NAN,NAN,NAN,NAN,NAN,NAN,NAN,NAN,,,,,,,,,,,,,,,,,,,,,,,,,,,,,,,,,,,,,,,,,,,1,,,,,,,,,
2024-11-15T18:00:00Z,,,,,,,,,,,,,,,37-26087,NAN,NAN,NAN,NAN,NAN,NAN,NAN,NAN,NAN,NAN,NAN,NAN,,,,,,,,,,,,,,,,,,,,,,,,,,,,,,,,,,,,,,,,,,,1,,,,,,,,,
2024-11-15T17:00:00Z,,,,,,,,,,,,,,,37-26087,NAN,NAN,NAN,NAN,NAN,NAN,NAN,NAN,NAN,NAN,NAN,NAN,,,,,,,,,,,,,,,,,,,,,,,,,,,,,,,,,,,,,,,,,,,1,,,,,,,,,
2024-11-15T16:00:00Z,,,,,,,,,,,,,,,37-26087,NAN,NAN,NAN,NAN,NAN,NAN,NAN,NAN,NAN,NAN,NAN,NAN,,,,,,,,,,,,,,,,,,,,,,,,,,,,,,,,,,,,,,,,,,,1,,,,,,,,,
2024-11-15T15:00:00Z,,,,,,,,,,,,,,,37-26087,NAN,NAN,NAN,NAN,NAN,NAN,NAN,NAN,NAN,NAN,NAN,NAN,,,,,,,,,,,,,,,,,,,,,,,,,,,,,,,,,,,,,,,,,,,1,,,,,,,,,
2024-11-15T14:00:00Z,,,,,,,,,,,,,,,37-26087,NAN,NAN,NAN,NAN,NAN,NAN,NAN,NAN,NAN,NAN,NAN,NAN,,,,,,,,,,,,,,,,,,,,,,,,,,,,,,,,,,,,,,,,,,,1,,,,,,,,,
2024-11-15T13:00:00Z,,,,,,,,,,,,,,,37-26087,NAN,NAN,NAN,NAN,NAN,NAN,NAN,NAN,NAN,NAN,NAN,NAN,,,,,,,,,,,,,,,,,,,,,,,,,,,,,,,,,,,,,,,,,,,1,,,,,,,,,
2024-11-15T12:00:00Z,,,,,,,,,,,,,,,37-26087,NAN,NAN,NAN,NAN,NAN,NAN,NAN,NAN,NAN,NAN,NAN,NAN,,,,,,,,,,,,,,,,,,,,,,,,,,,,,,,,,,,,,,,,,,,1,,,,,,,,,
2024-11-15T11:00:00Z,,,,,,,,,,,,,,,37-26087,NAN,NAN,NAN,NAN,NAN,NAN,NAN,NAN,NAN,NAN,NAN,NAN,,,,,,,,,,,,,,,,,,,,,,,,,,,,,,,,,,,,,,,,,,,1,,,,,,,,,
2024-11-15T10:00:00Z,,,,,,,,,,,,,,,37-26087,NAN,NAN,NAN,NAN,NAN,NAN,NAN,NAN,NAN,NAN,NAN,NAN,,,,,,,,,,,,,,,,,,,,,,,,,,,,,,,,,,,,,,,,,,,1,,,,,,,,,
2024-11-14T13:00:00Z,,,,,,,,,,,,,,,37-26087,NAN,NAN,NAN,NAN,NAN,NAN,NAN,NAN,NAN,NAN,NAN,NAN,,,,,,,,,,,,,,,,,,,,,,,,,,,,,,,,,,,,,,,,,,,1,,,,,,,,,
2024-11-12T15:00:00Z,,,,,,,,,,,,,,,37-26087,23.0054,5.49506,0.079,NAN,38.0699,12.2,1536,238.4,-165.7,-160.6,0.255,24.29,3122 83,5421 48,4001 22,2108 357,2638 16,2683 11,2417 356,2974 8,3000 10,2038 337,2785 14,2646 357,2210 353,2237 13,2019 4,2193 350,2396 3,2406 1,2524 338,2732 346,2448 348,1506 340,2134 338,2471 347,2633 356,2775 9,2323 5,2276 350,2168 5,2498 3,1607 354,2511 345,2789 3,2218 4,2244 353,2700 13,2423 357,2624 358,2433 18,2051 347,:5:70A :17AE70AE3591E8217D61A2C12B2234A136E1A1B12B0233E13701A3112AD234213731A2512A9233B13651A3012AE234013721A2810E9233B13531A290724233A12C31A2301E2233911951A290109233811041A220182233D10F01A2602B5233811B71A20044F233C12291A26062E233212601A21080E233812A41A2B0A0E233812D41A200B6F232B13061A2C0CAC234013301A200DDE232813381A1F0EDC2334133F1A210FB1233413411A24105E233913501A2B10CF233D13511A2510D8232E12DF1A2A1195233C13581A2A11D9233E135B1A2812052337135C1A1C1239233813603E003EB517D241  ,:5:70A :17AE70AE3591E8217D61A2C12B2234A136E1A1B12B0233E13701A3112AD234213731A2512A9233B13651A3012AE234013721A2810E9233B13531A290724233A12C31A2301E2233911951A290109233811041A220182233D10F01A2602B5233811B71A20044F233C12291A26062E233212601A21080E233812A41A2B0A0E233812D41A200B6F232B13061A2C0CAC234013301A200DDE232813381A1F0EDC2334133F1A210FB1233413411A24105E233913501A2B10CF233D13511A2510D8232E12DF1A2A1195233C13581A2A11D9233E135B1A2812052337135C1A1C1239233813603E003EB517D241  ,1,,,,,,,,,
